{"updated":"2026-04-24T04:02:32Z","schema_version":3,"count":3397,"stations":[{"stationId":"55522198","femsStationId":55522198,"wrccId":"X10K","name":"10K","state":"NM","lat":35.20847,"lng":-106.43586,"elevation":10040,"agency":"USFS","network":"RAWS","timeZone":"MST","timeZoneOffset":-7,"hasHistoric":false,"weatherHourly":true,"nfdrsHourly":true,"produceNfdrs":true,"latestObs":null},{"stationId":"102004","femsStationId":55520340,"wrccId":"I3MI","name":"3 MILE","state":"ID","lat":44.39583,"lng":-112.10806,"elevation":6625,"agency":"USFS","network":"RAWS","timeZone":"MST","timeZoneOffset":-7,"hasHistoric":true,"weatherHourly":true,"nfdrsHourly":true,"produceNfdrs":true,"latestObs":null},{"stationId":"313302","femsStationId":55521286,"wrccId":"N7MR","name":"7 MILE RIDGE","state":"NC","lat":35.803,"lng":-82.6504,"elevation":2061,"agency":"S&PF","network":"RAWS","timeZone":"EST","timeZoneOffset":-5,"hasHistoric":true,"weatherHourly":true,"nfdrsHourly":true,"produceNfdrs":true,"latestObs":null},{"stationId":"55522405","femsStationId":55522405,"wrccId":null,"name":"Aberdeen, Aberdeen Regional Airport","state":"SD","lat":45.44333,"lng":-98.41306,"elevation":1299,"agency":"NWS","network":"ASOS","timeZone":"CST","timeZoneOffset":-6,"hasHistoric":false,"weatherHourly":true,"nfdrsHourly":true,"produceNfdrs":true,"latestObs":null},{"stationId":"55522971","femsStationId":55522971,"wrccId":null,"name":"Abernathy 5ENE","state":"TX","lat":33.87538,"lng":-101.75718,"elevation":3333,"agency":"WestTX Mesonet","network":"Mesonet","timeZone":"CST","timeZoneOffset":-6,"hasHistoric":false,"weatherHourly":false,"nfdrsHourly":true,"produceNfdrs":true,"latestObs":null},{"stationId":"451209","femsStationId":55520313,"wrccId":"WABE","name":"ABERNATHY MTN.","state":"WA","lat":46.34278,"lng":-123.08306,"elevation":2000,"agency":"S&PF","network":"RAWS","timeZone":"PST","timeZoneOffset":-8,"hasHistoric":true,"weatherHourly":true,"nfdrsHourly":true,"produceNfdrs":true,"latestObs":null},{"stationId":"55523687","femsStationId":55523687,"wrccId":null,"name":"Abilene 3NE","state":"TX","lat":32.47412,"lng":-99.70328,"elevation":1689,"agency":"WestTX Mesonet","network":"Mesonet","timeZone":"CST","timeZoneOffset":-6,"hasHistoric":false,"weatherHourly":false,"nfdrsHourly":true,"produceNfdrs":true,"latestObs":null},{"stationId":"55522406","femsStationId":55522406,"wrccId":null,"name":"Abilene, Abilene Regional Airport","state":"TX","lat":32.41028,"lng":-99.68167,"elevation":1788,"agency":"NWS","network":"ASOS","timeZone":"CST","timeZoneOffset":-6,"hasHistoric":false,"weatherHourly":true,"nfdrsHourly":true,"produceNfdrs":true,"latestObs":null},{"stationId":"55522407","femsStationId":55522407,"wrccId":null,"name":"Acadiana Regional Airport","state":"LA","lat":30.02918,"lng":-91.88451,"elevation":13,"agency":"NWS","network":"ASOS","timeZone":"CST","timeZoneOffset":-6,"hasHistoric":false,"weatherHourly":true,"nfdrsHourly":true,"produceNfdrs":true,"latestObs":null},{"stationId":"384101","femsStationId":55520584,"wrccId":"SACE","name":"ACE BASIN","state":"SC","lat":32.65833,"lng":-80.39889,"elevation":9,"agency":"FWS","network":"RAWS","timeZone":"EST","timeZoneOffset":-5,"hasHistoric":true,"weatherHourly":true,"nfdrsHourly":true,"produceNfdrs":true,"latestObs":null},{"stationId":"55523185","femsStationId":55523185,"wrccId":null,"name":"Acme","state":"OK","lat":34.80833,"lng":-98.02325,"elevation":1302,"agency":"OK Mesonet","network":"Mesonet","timeZone":"CST","timeZoneOffset":-6,"hasHistoric":false,"weatherHourly":false,"nfdrsHourly":true,"produceNfdrs":true,"latestObs":null},{"stationId":"353213","femsStationId":55520682,"wrccId":"OSQU","name":"ACORN WOMAN PEAK","state":"OR","lat":42.06972,"lng":-123.01167,"elevation":4964,"agency":"USFS","network":"RAWS","timeZone":"PST","timeZoneOffset":-8,"hasHistoric":true,"weatherHourly":true,"nfdrsHourly":true,"produceNfdrs":true,"latestObs":null},{"stationId":"45438","femsStationId":55520488,"wrccId":"CACT","name":"ACTON","state":"CA","lat":34.44639,"lng":-118.1968,"elevation":2600,"agency":"S&PF","network":"RAWS","timeZone":"PST","timeZoneOffset":-8,"hasHistoric":true,"weatherHourly":true,"nfdrsHourly":true,"produceNfdrs":true,"latestObs":null},{"stationId":"55523184","femsStationId":55523184,"wrccId":null,"name":"Ada","state":"OK","lat":34.79851,"lng":-96.66909,"elevation":968,"agency":"OK Mesonet","network":"Mesonet","timeZone":"CST","timeZoneOffset":-6,"hasHistoric":false,"weatherHourly":false,"nfdrsHourly":true,"produceNfdrs":true,"latestObs":null},{"stationId":"55523343","femsStationId":55523343,"wrccId":null,"name":"Addison","state":"NY","lat":42.04036,"lng":-77.23726,"elevation":1665,"agency":"NY Mesonet","network":"Mesonet","timeZone":"EST","timeZoneOffset":-5,"hasHistoric":false,"weatherHourly":false,"nfdrsHourly":true,"produceNfdrs":true,"latestObs":null},{"stationId":"98401","femsStationId":55522038,"wrccId":"GCOO","name":"ADEL","state":"GA","lat":31.10972,"lng":-83.42694,"elevation":232,"agency":"S&PF","network":"RAWS","timeZone":"EST","timeZoneOffset":-5,"hasHistoric":true,"weatherHourly":true,"nfdrsHourly":true,"produceNfdrs":true,"latestObs":null},{"stationId":"55523255","femsStationId":55523255,"wrccId":null,"name":"Adrian 6WSW","state":"TX","lat":35.25347,"lng":-102.76158,"elevation":4260,"agency":"WestTX Mesonet","network":"Mesonet","timeZone":"CST","timeZoneOffset":-6,"hasHistoric":false,"weatherHourly":false,"nfdrsHourly":true,"produceNfdrs":true,"latestObs":null},{"stationId":"55522408","femsStationId":55522408,"wrccId":null,"name":"Adrian, Lenawee County Airport","state":"MI","lat":41.86778,"lng":-84.07944,"elevation":801,"agency":"NWS","network":"ASOS","timeZone":"EST","timeZoneOffset":-5,"hasHistoric":false,"weatherHourly":true,"nfdrsHourly":true,"produceNfdrs":true,"latestObs":null},{"stationId":"452001","femsStationId":55520553,"wrccId":"WAEN","name":"AENEAS","state":"WA","lat":48.74325,"lng":-119.62247,"elevation":5185,"agency":"S&PF","network":"RAWS","timeZone":"PST","timeZoneOffset":-8,"hasHistoric":true,"weatherHourly":true,"nfdrsHourly":true,"produceNfdrs":true,"latestObs":null},{"stationId":"210801","femsStationId":55520611,"wrccId":"MAGA","name":"AGASSIZ","state":"MN","lat":48.305,"lng":-95.87417,"elevation":920,"agency":"FWS","network":"RAWS","timeZone":"CST","timeZoneOffset":-6,"hasHistoric":true,"weatherHourly":true,"nfdrsHourly":true,"produceNfdrs":true,"latestObs":null},{"stationId":"250105","femsStationId":55520799,"wrccId":"NAGA","name":"AGATE","state":"NE","lat":42.425,"lng":-103.73583,"elevation":4400,"agency":"NPS","network":"RAWS","timeZone":"MST","timeZoneOffset":-7,"hasHistoric":true,"weatherHourly":true,"nfdrsHourly":true,"produceNfdrs":true,"latestObs":null},{"stationId":"352916","femsStationId":55520694,"wrccId":"OAGN","name":"AGNESS2","state":"OR","lat":42.55222,"lng":-124.05778,"elevation":247,"agency":"USFS","network":"RAWS","timeZone":"PST","timeZoneOffset":-8,"hasHistoric":true,"weatherHourly":true,"nfdrsHourly":true,"produceNfdrs":true,"latestObs":null},{"stationId":"422903","femsStationId":55520756,"wrccId":"AQUA","name":"AGUA CANYON","state":"UT","lat":37.52222,"lng":-112.27111,"elevation":8890,"agency":"NPS","network":"RAWS","timeZone":"MST","timeZoneOffset":-7,"hasHistoric":true,"weatherHourly":true,"nfdrsHourly":true,"produceNfdrs":true,"latestObs":null},{"stationId":"21503","femsStationId":55521313,"wrccId":"AAHA","name":"AHAKHAV PRESERVE","state":"AZ","lat":34.13222,"lng":-114.32917,"elevation":363,"agency":"BIA","network":"RAWS","timeZone":"MST","timeZoneOffset":-7,"hasHistoric":true,"weatherHourly":true,"nfdrsHourly":true,"produceNfdrs":true,"latestObs":null},{"stationId":"496028","femsStationId":55520973,"wrccId":"HAHU","name":"AHUMOA","state":"HI","lat":19.83709,"lng":-155.61288,"elevation":6568,"agency":"S&PF","network":"RAWS","timeZone":"PST","timeZoneOffset":-8,"hasHistoric":true,"weatherHourly":true,"nfdrsHourly":true,"produceNfdrs":true,"latestObs":null},{"stationId":"55523195","femsStationId":55523195,"wrccId":null,"name":"Aiken 3WSW","state":"TX","lat":34.13305,"lng":-101.56952,"elevation":3321,"agency":"WestTX Mesonet","network":"Mesonet","timeZone":"CST","timeZoneOffset":-6,"hasHistoric":false,"weatherHourly":false,"nfdrsHourly":true,"produceNfdrs":true,"latestObs":null},{"stationId":"55522409","femsStationId":55522409,"wrccId":null,"name":"Akron, Akron Fulton International Airport","state":"OH","lat":41.0375,"lng":-81.46417,"elevation":1066,"agency":"NWS","network":"ASOS","timeZone":"EST","timeZoneOffset":-5,"hasHistoric":false,"weatherHourly":true,"nfdrsHourly":true,"produceNfdrs":true,"latestObs":null},{"stationId":"55522410","femsStationId":55522410,"wrccId":null,"name":"Akron Canton Regional Airport","state":"OH","lat":40.91811,"lng":-81.44343,"elevation":1211,"agency":"NWS","network":"ASOS","timeZone":"EST","timeZoneOffset":-5,"hasHistoric":false,"weatherHourly":true,"nfdrsHourly":true,"produceNfdrs":true,"latestObs":null},{"stationId":"55522411","femsStationId":55522411,"wrccId":null,"name":"Alabaster, Shelby County Airport","state":"AL","lat":33.17833,"lng":-86.78167,"elevation":584,"agency":"NWS","network":"ASOS","timeZone":"CST","timeZoneOffset":-6,"hasHistoric":false,"weatherHourly":true,"nfdrsHourly":true,"produceNfdrs":true,"latestObs":null},{"stationId":"55523623","femsStationId":55523623,"wrccId":null,"name":"Alamito Ranch","state":"TX","lat":30.03176,"lng":-103.9983,"elevation":4137,"agency":"TexMesonet","network":"Mesonet","timeZone":"CST","timeZoneOffset":-6,"hasHistoric":false,"weatherHourly":true,"nfdrsHourly":true,"produceNfdrs":true,"latestObs":null},{"stationId":"55504","femsStationId":55522161,"wrccId":"CALA","name":"ALAMOSA","state":"CO","lat":37.4798,"lng":-105.93982,"elevation":7570,"agency":"S&PF","network":"RAWS","timeZone":"MST","timeZoneOffset":-7,"hasHistoric":true,"weatherHourly":true,"nfdrsHourly":true,"produceNfdrs":true,"latestObs":null},{"stationId":"55523621","femsStationId":55523621,"wrccId":null,"name":"Albany 3ENE","state":"TX","lat":32.74509,"lng":-99.24133,"elevation":1358,"agency":"WestTX Mesonet","network":"Mesonet","timeZone":"CST","timeZoneOffset":-6,"hasHistoric":false,"weatherHourly":false,"nfdrsHourly":true,"produceNfdrs":true,"latestObs":null},{"stationId":"55522412","femsStationId":55522412,"wrccId":null,"name":"Albany International Airport","state":"NY","lat":42.74722,"lng":-73.79912,"elevation":285,"agency":"NWS","network":"ASOS","timeZone":"EST","timeZoneOffset":-5,"hasHistoric":false,"weatherHourly":true,"nfdrsHourly":true,"produceNfdrs":true,"latestObs":null},{"stationId":"300011","femsStationId":55520989,"wrccId":"YALB","name":"ALBANY PINE BUSH","state":"NY","lat":42.71969,"lng":-73.86433,"elevation":346,"agency":"S&PF","network":"RAWS","timeZone":"EST","timeZoneOffset":-5,"hasHistoric":true,"weatherHourly":true,"nfdrsHourly":true,"produceNfdrs":true,"latestObs":null},{"stationId":"55522413","femsStationId":55522413,"wrccId":null,"name":"Albert Whitted Airport","state":"FL","lat":27.76852,"lng":-82.62564,"elevation":3,"agency":"NWS","network":"ASOS","timeZone":"EST","timeZoneOffset":-5,"hasHistoric":false,"weatherHourly":true,"nfdrsHourly":true,"produceNfdrs":true,"latestObs":null},{"stationId":"290102","femsStationId":55521225,"wrccId":"XALB","name":"ALBINO CANYON","state":"NM","lat":36.97661,"lng":-107.62892,"elevation":7173,"agency":"BLM","network":"RAWS","timeZone":"MST","timeZoneOffset":-7,"hasHistoric":true,"weatherHourly":true,"nfdrsHourly":true,"produceNfdrs":true,"latestObs":null},{"stationId":"44523","femsStationId":55521055,"wrccId":"CALC","name":"ALCALDE","state":"CA","lat":36.18333,"lng":-120.49861,"elevation":2728,"agency":"S&PF","network":"RAWS","timeZone":"PST","timeZoneOffset":-8,"hasHistoric":true,"weatherHourly":true,"nfdrsHourly":true,"produceNfdrs":true,"latestObs":null},{"stationId":"500726","femsStationId":55521650,"wrccId":"AALC","name":"ALCAN HWY MI-1244","state":"AK","lat":62.83327,"lng":-141.40943,"elevation":1900,"agency":"FWS","network":"RAWS","timeZone":"AKST","timeZoneOffset":-9,"hasHistoric":true,"weatherHourly":true,"nfdrsHourly":true,"produceNfdrs":true,"latestObs":null},{"stationId":"40423","femsStationId":55521124,"wrccId":"CAPT","name":"ALDER POINT","state":"CA","lat":40.18602,"lng":-123.59106,"elevation":1059,"agency":"S&PF","network":"RAWS","timeZone":"PST","timeZoneOffset":-8,"hasHistoric":true,"weatherHourly":true,"nfdrsHourly":true,"produceNfdrs":true,"latestObs":null},{"stationId":"453803","femsStationId":55522148,"wrccId":"WALD","name":"ALDER RIDGE","state":"WA","lat":46.26833,"lng":-117.49833,"elevation":4500,"agency":"USFS","network":"RAWS","timeZone":"PST","timeZoneOffset":-8,"hasHistoric":true,"weatherHourly":true,"nfdrsHourly":true,"produceNfdrs":true,"latestObs":null},{"stationId":"41101","femsStationId":55521461,"wrccId":"CALD","name":"ALDER SPRINGS","state":"CA","lat":39.65162,"lng":-122.72453,"elevation":4543,"agency":"USFS","network":"RAWS","timeZone":"PST","timeZoneOffset":-8,"hasHistoric":true,"weatherHourly":true,"nfdrsHourly":true,"produceNfdrs":true,"latestObs":null},{"stationId":"55522414","femsStationId":55522414,"wrccId":null,"name":"Alexandria, Alexandria International Airport","state":"LA","lat":31.33472,"lng":-92.55861,"elevation":89,"agency":"NWS","network":"ASOS","timeZone":"CST","timeZoneOffset":-6,"hasHistoric":false,"weatherHourly":true,"nfdrsHourly":true,"produceNfdrs":true,"latestObs":null},{"stationId":"55522415","femsStationId":55522415,"wrccId":null,"name":"Alexandria, Chandler Field","state":"MN","lat":45.86861,"lng":-95.39417,"elevation":1424,"agency":"NWS","network":"ASOS","timeZone":"CST","timeZoneOffset":-6,"hasHistoric":false,"weatherHourly":true,"nfdrsHourly":true,"produceNfdrs":true,"latestObs":null},{"stationId":"55522416","femsStationId":55522416,"wrccId":null,"name":"Alexandria Esler Regional Airport","state":"LA","lat":31.39634,"lng":-92.28273,"elevation":85,"agency":"NWS","network":"ASOS","timeZone":"CST","timeZoneOffset":-6,"hasHistoric":false,"weatherHourly":true,"nfdrsHourly":true,"produceNfdrs":true,"latestObs":null},{"stationId":"204201","femsStationId":55521890,"wrccId":"MALG","name":"ALGER","state":"MI","lat":44.12917,"lng":-84.12278,"elevation":783,"agency":"S&PF","network":"RAWS","timeZone":"EST","timeZoneOffset":-5,"hasHistoric":true,"weatherHourly":true,"nfdrsHourly":true,"produceNfdrs":true,"latestObs":null},{"stationId":"55522417","femsStationId":55522417,"wrccId":null,"name":"Alice, Alice International Airport","state":"TX","lat":27.74111,"lng":-98.02694,"elevation":177,"agency":"NWS","network":"ASOS","timeZone":"CST","timeZoneOffset":-6,"hasHistoric":false,"weatherHourly":true,"nfdrsHourly":true,"produceNfdrs":true,"latestObs":null},{"stationId":"45509","femsStationId":55521272,"wrccId":"CALG","name":"ALISO LAGUNA","state":"CA","lat":33.53597,"lng":-117.75336,"elevation":820,"agency":"OTHR","network":"RAWS","timeZone":"PST","timeZoneOffset":-8,"hasHistoric":true,"weatherHourly":true,"nfdrsHourly":true,"produceNfdrs":true,"latestObs":null},{"stationId":"353618","femsStationId":55521071,"wrccId":"OALK","name":"ALKALI FLAT","state":"OR","lat":44.08728,"lng":-117.22603,"elevation":2495,"agency":"BLM","network":"RAWS","timeZone":"MST","timeZoneOffset":-7,"hasHistoric":true,"weatherHourly":true,"nfdrsHourly":true,"produceNfdrs":true,"latestObs":null},{"stationId":"361002","femsStationId":55520464,"wrccId":"PALL","name":"ALLEGHENY","state":"PA","lat":41.54339,"lng":-79.12672,"elevation":1766,"agency":"USFS","network":"RAWS","timeZone":"EST","timeZoneOffset":-5,"hasHistoric":true,"weatherHourly":true,"nfdrsHourly":true,"produceNfdrs":true,"latestObs":null},{"stationId":"55522418","femsStationId":55522418,"wrccId":null,"name":"Allentown, Lehigh Valley International Airport","state":"PA","lat":40.64985,"lng":-75.44771,"elevation":384,"agency":"NWS","network":"ASOS","timeZone":"EST","timeZoneOffset":-5,"hasHistoric":false,"weatherHourly":true,"nfdrsHourly":true,"produceNfdrs":true,"latestObs":null},{"stationId":"55522419","femsStationId":55522419,"wrccId":null,"name":"Alliance, Alliance Municipal Airport","state":"NE","lat":42.05722,"lng":-102.8,"elevation":3927,"agency":"NWS","network":"ASOS","timeZone":"MST","timeZoneOffset":-7,"hasHistoric":false,"weatherHourly":true,"nfdrsHourly":true,"produceNfdrs":true,"latestObs":null},{"stationId":"260804","femsStationId":55521494,"wrccId":"NALL","name":"ALLIGATOR RIDGE","state":"NV","lat":39.73589,"lng":-115.51858,"elevation":6675,"agency":"BLM","network":"RAWS","timeZone":"PST","timeZoneOffset":-8,"hasHistoric":true,"weatherHourly":true,"nfdrsHourly":true,"produceNfdrs":true,"latestObs":null},{"stationId":"353501","femsStationId":55520772,"wrccId":"OALL","name":"ALLISON","state":"OR","lat":43.92139,"lng":-119.59639,"elevation":5320,"agency":"USFS","network":"RAWS","timeZone":"PST","timeZoneOffset":-8,"hasHistoric":true,"weatherHourly":true,"nfdrsHourly":true,"produceNfdrs":true,"latestObs":null},{"stationId":"55523706","femsStationId":55523706,"wrccId":null,"name":"Alma 5SE","state":"KS","lat":38.96615,"lng":-96.2063,"elevation":1404,"agency":"KS Mesonet","network":"Mesonet","timeZone":"CST","timeZoneOffset":-6,"hasHistoric":false,"weatherHourly":false,"nfdrsHourly":true,"produceNfdrs":true,"latestObs":null},{"stationId":"55522420","femsStationId":55522420,"wrccId":null,"name":"Alma, Bacon County Airport","state":"GA","lat":31.53611,"lng":-82.50667,"elevation":200,"agency":"NWS","network":"ASOS","timeZone":"EST","timeZoneOffset":-5,"hasHistoric":false,"weatherHourly":true,"nfdrsHourly":true,"produceNfdrs":true,"latestObs":null},{"stationId":"55522421","femsStationId":55522421,"wrccId":null,"name":"Alpena, Alpena County Regional Airport","state":"MI","lat":45.07167,"lng":-83.56444,"elevation":689,"agency":"NWS","network":"ASOS","timeZone":"EST","timeZoneOffset":-5,"hasHistoric":false,"weatherHourly":true,"nfdrsHourly":true,"produceNfdrs":true,"latestObs":null},{"stationId":"159501","femsStationId":55521771,"wrccId":"KALP","name":"ALPINE","state":"KY","lat":36.79556,"lng":-85.38028,"elevation":853,"agency":"S&PF","network":"RAWS","timeZone":"CST","timeZoneOffset":-6,"hasHistoric":true,"weatherHourly":true,"nfdrsHourly":true,"produceNfdrs":true,"latestObs":null},{"stationId":"20401","femsStationId":55521279,"wrccId":"AALP","name":"ALPINE","state":"AZ","lat":33.84272,"lng":-109.11161,"elevation":8207,"agency":"USFS","network":"RAWS","timeZone":"MST","timeZoneOffset":-7,"hasHistoric":true,"weatherHourly":true,"nfdrsHourly":true,"produceNfdrs":true,"latestObs":null},{"stationId":"43407","femsStationId":55520969,"wrccId":"CATT","name":"ALTAMONT","state":"CA","lat":37.69303,"lng":-121.60933,"elevation":1436,"agency":"S&PF","network":"RAWS","timeZone":"PST","timeZoneOffset":-8,"hasHistoric":true,"weatherHourly":true,"nfdrsHourly":true,"produceNfdrs":true,"latestObs":null},{"stationId":"55522422","femsStationId":55522422,"wrccId":null,"name":"Altoona - Blair County Airport","state":"PA","lat":40.29994,"lng":-78.3168,"elevation":1467,"agency":"NWS","network":"ASOS","timeZone":"EST","timeZoneOffset":-5,"hasHistoric":false,"weatherHourly":true,"nfdrsHourly":true,"produceNfdrs":true,"latestObs":null},{"stationId":"55523183","femsStationId":55523183,"wrccId":null,"name":"Altus","state":"OK","lat":34.58722,"lng":-99.33808,"elevation":1364,"agency":"OK Mesonet","network":"Mesonet","timeZone":"CST","timeZoneOffset":-6,"hasHistoric":false,"weatherHourly":false,"nfdrsHourly":true,"produceNfdrs":true,"latestObs":null},{"stationId":"55523191","femsStationId":55523191,"wrccId":null,"name":"Altwein Rd","state":"TX","lat":30.14966,"lng":-98.54051,"elevation":1824,"agency":"TexMesonet","network":"Mesonet","timeZone":"CST","timeZoneOffset":-6,"hasHistoric":false,"weatherHourly":true,"nfdrsHourly":true,"produceNfdrs":true,"latestObs":null},{"stationId":"55523182","femsStationId":55523182,"wrccId":null,"name":"Alva","state":"OK","lat":36.70823,"lng":-98.70974,"elevation":1440,"agency":"OK Mesonet","network":"Mesonet","timeZone":"CST","timeZoneOffset":-6,"hasHistoric":false,"weatherHourly":false,"nfdrsHourly":true,"produceNfdrs":true,"latestObs":null},{"stationId":"55523197","femsStationId":55523197,"wrccId":null,"name":"Amarillo 15NNW","state":"TX","lat":35.41648,"lng":-101.93224,"elevation":3323,"agency":"WestTX Mesonet","network":"Mesonet","timeZone":"CST","timeZoneOffset":-6,"hasHistoric":false,"weatherHourly":false,"nfdrsHourly":true,"produceNfdrs":true,"latestObs":null},{"stationId":"55523198","femsStationId":55523198,"wrccId":null,"name":"Amarillo 7SSE","state":"TX","lat":35.1127,"lng":-101.79964,"elevation":3611,"agency":"WestTX Mesonet","network":"Mesonet","timeZone":"CST","timeZoneOffset":-6,"hasHistoric":false,"weatherHourly":false,"nfdrsHourly":true,"produceNfdrs":true,"latestObs":null},{"stationId":"55523196","femsStationId":55523196,"wrccId":null,"name":"Amarillo 9NNE","state":"TX","lat":35.33597,"lng":-101.80627,"elevation":3346,"agency":"WestTX Mesonet","network":"Mesonet","timeZone":"CST","timeZoneOffset":-6,"hasHistoric":false,"weatherHourly":false,"nfdrsHourly":true,"produceNfdrs":true,"latestObs":null},{"stationId":"55522423","femsStationId":55522423,"wrccId":null,"name":"Amarillo, Amarillo International Airport","state":"TX","lat":35.22,"lng":-101.71722,"elevation":3606,"agency":"NWS","network":"ASOS","timeZone":"CST","timeZoneOffset":-6,"hasHistoric":false,"weatherHourly":true,"nfdrsHourly":true,"produceNfdrs":true,"latestObs":null},{"stationId":"95501","femsStationId":55521738,"wrccId":"GPLA","name":"AMERICUS/PLAINS","state":"GA","lat":32.11056,"lng":-84.18417,"elevation":456,"agency":"S&PF","network":"RAWS","timeZone":"EST","timeZoneOffset":-5,"hasHistoric":true,"weatherHourly":true,"nfdrsHourly":true,"produceNfdrs":true,"latestObs":null},{"stationId":"55522424","femsStationId":55522424,"wrccId":null,"name":"Ames, Ames Municipal Airport","state":"IA","lat":41.99056,"lng":-93.61889,"elevation":945,"agency":"NWS","network":"ASOS","timeZone":"CST","timeZoneOffset":-6,"hasHistoric":false,"weatherHourly":true,"nfdrsHourly":true,"produceNfdrs":true,"latestObs":null},{"stationId":"55522972","femsStationId":55522972,"wrccId":null,"name":"Amherst 1NE","state":"TX","lat":34.02178,"lng":-102.40453,"elevation":3647,"agency":"WestTX Mesonet","network":"Mesonet","timeZone":"CST","timeZoneOffset":-6,"hasHistoric":false,"weatherHourly":false,"nfdrsHourly":true,"produceNfdrs":true,"latestObs":null},{"stationId":"520100","femsStationId":55522043,"wrccId":"AMME","name":"AMME CS","state":"MP","lat":15.21778,"lng":145.71772,"elevation":25,"agency":"NPS","network":"RAWS","timeZone":"ChST","timeZoneOffset":10,"hasHistoric":true,"weatherHourly":true,"nfdrsHourly":true,"produceNfdrs":true,"latestObs":null},{"stationId":"109703","femsStationId":55521851,"wrccId":"CANA","name":"ANACAPA ISLAND","state":"CA","lat":34.01506,"lng":-119.36317,"elevation":277,"agency":"NPS","network":"RAWS","timeZone":"PST","timeZoneOffset":-8,"hasHistoric":true,"weatherHourly":true,"nfdrsHourly":true,"produceNfdrs":true,"latestObs":null},{"stationId":"416099","femsStationId":55522108,"wrccId":"TANA","name":"ANAHUAC","state":"TX","lat":29.66892,"lng":-94.43847,"elevation":34,"agency":"FWS","network":"RAWS","timeZone":"CST","timeZoneOffset":-6,"hasHistoric":true,"weatherHourly":true,"nfdrsHourly":true,"produceNfdrs":true,"latestObs":null},{"stationId":"280071","femsStationId":55520586,"wrccId":"JANC","name":"ANCORA HOSPITAL","state":"NJ","lat":39.68462,"lng":-74.86474,"elevation":116,"agency":"S&PF","network":"RAWS","timeZone":"EST","timeZoneOffset":-5,"hasHistoric":true,"weatherHourly":true,"nfdrsHourly":true,"produceNfdrs":true,"latestObs":null},{"stationId":"55522425","femsStationId":55522425,"wrccId":null,"name":"Andalusia, Andalusia-Opp Municipal Airport","state":"AL","lat":31.3,"lng":-86.38333,"elevation":308,"agency":"NWS","network":"ASOS","timeZone":"CST","timeZoneOffset":-6,"hasHistoric":false,"weatherHourly":true,"nfdrsHourly":true,"produceNfdrs":true,"latestObs":null},{"stationId":"55522426","femsStationId":55522426,"wrccId":null,"name":"Anderson, Anderson County Airport","state":"SC","lat":34.49778,"lng":-82.70972,"elevation":781,"agency":"NWS","network":"ASOS","timeZone":"EST","timeZoneOffset":-5,"hasHistoric":false,"weatherHourly":true,"nfdrsHourly":true,"produceNfdrs":true,"latestObs":null},{"stationId":"481903","femsStationId":55521928,"wrccId":"WAND","name":"ANDERSON RIDGE","state":"WY","lat":42.43722,"lng":-108.94556,"elevation":8120,"agency":"BLM","network":"RAWS","timeZone":"MST","timeZoneOffset":-7,"hasHistoric":true,"weatherHourly":true,"nfdrsHourly":true,"produceNfdrs":true,"latestObs":null},{"stationId":"55523344","femsStationId":55523344,"wrccId":null,"name":"Andes","state":"NY","lat":42.18227,"lng":-74.80139,"elevation":1700,"agency":"NY Mesonet","network":"Mesonet","timeZone":"EST","timeZoneOffset":-5,"hasHistoric":false,"weatherHourly":false,"nfdrsHourly":true,"produceNfdrs":true,"latestObs":null},{"stationId":"55522427","femsStationId":55522427,"wrccId":null,"name":"Andover, Aeroflex-Andover Airport","state":"NJ","lat":41.00928,"lng":-74.73628,"elevation":584,"agency":"NWS","network":"ASOS","timeZone":"EST","timeZoneOffset":-5,"hasHistoric":false,"weatherHourly":true,"nfdrsHourly":true,"produceNfdrs":true,"latestObs":null},{"stationId":"380102","femsStationId":55521787,"wrccId":"SANP","name":"ANDREW PICKENS","state":"SC","lat":34.80847,"lng":-83.12761,"elevation":1669,"agency":"USFS","network":"RAWS","timeZone":"EST","timeZoneOffset":-5,"hasHistoric":true,"weatherHourly":true,"nfdrsHourly":true,"produceNfdrs":true,"latestObs":null},{"stationId":"55523020","femsStationId":55523020,"wrccId":null,"name":"Andrews 2E","state":"TX","lat":32.32008,"lng":-102.51669,"elevation":3169,"agency":"WestTX Mesonet","network":"Mesonet","timeZone":"CST","timeZoneOffset":-6,"hasHistoric":false,"weatherHourly":false,"nfdrsHourly":true,"produceNfdrs":true,"latestObs":null},{"stationId":"500742","femsStationId":55520674,"wrccId":"AANG","name":"ANGEL CREEK","state":"AK","lat":65.02,"lng":-146.22806,"elevation":1100,"agency":"S&PF","network":"RAWS","timeZone":"AKST","timeZoneOffset":-9,"hasHistoric":true,"weatherHourly":true,"nfdrsHourly":true,"produceNfdrs":true,"latestObs":null},{"stationId":"55522428","femsStationId":55522428,"wrccId":null,"name":"Angleton / Lake Jackson, Brazoria County Airport","state":"TX","lat":29.11536,"lng":-95.46323,"elevation":20,"agency":"NWS","network":"ASOS","timeZone":"CST","timeZoneOffset":-6,"hasHistoric":false,"weatherHourly":true,"nfdrsHourly":true,"produceNfdrs":true,"latestObs":null},{"stationId":"55522429","femsStationId":55522429,"wrccId":null,"name":"Ann Arbor, Ann Arbor Municipal Airport","state":"MI","lat":42.22389,"lng":-83.74,"elevation":837,"agency":"NWS","network":"ASOS","timeZone":"EST","timeZoneOffset":-5,"hasHistoric":false,"weatherHourly":true,"nfdrsHourly":true,"produceNfdrs":true,"latestObs":null},{"stationId":"55522430","femsStationId":55522430,"wrccId":null,"name":"Anniston Metro Airport","state":"AL","lat":33.59045,"lng":-85.84789,"elevation":594,"agency":"NWS","network":"ASOS","timeZone":"CST","timeZoneOffset":-6,"hasHistoric":false,"weatherHourly":true,"nfdrsHourly":true,"produceNfdrs":true,"latestObs":null},{"stationId":"245412","femsStationId":55522050,"wrccId":"MANT","name":"ANTELOPE","state":"MT","lat":44.68667,"lng":-112.54167,"elevation":6795,"agency":"USFS","network":"RAWS","timeZone":"MST","timeZoneOffset":-7,"hasHistoric":true,"weatherHourly":true,"nfdrsHourly":true,"produceNfdrs":true,"latestObs":null},{"stationId":"353524","femsStationId":55521015,"wrccId":"OANT","name":"ANTELOPE","state":"OR","lat":44.03972,"lng":-118.41639,"elevation":6460,"agency":"USFS","network":"RAWS","timeZone":"PST","timeZoneOffset":-8,"hasHistoric":true,"weatherHourly":true,"nfdrsHourly":true,"produceNfdrs":true,"latestObs":null},{"stationId":"260310","femsStationId":55520649,"wrccId":"NANT","name":"ANTELOPE LAKE","state":"NV","lat":41.68694,"lng":-116.76611,"elevation":5460,"agency":"BLM","network":"RAWS","timeZone":"PST","timeZoneOffset":-8,"hasHistoric":true,"weatherHourly":true,"nfdrsHourly":true,"produceNfdrs":true,"latestObs":null},{"stationId":"180303","femsStationId":55521233,"wrccId":"MANN","name":"ANTIETAM NB","state":"MD","lat":39.48944,"lng":-77.75333,"elevation":450,"agency":"NPS","network":"RAWS","timeZone":"EST","timeZoneOffset":-5,"hasHistoric":true,"weatherHourly":true,"nfdrsHourly":true,"produceNfdrs":true,"latestObs":null},{"stationId":"471901","femsStationId":55520764,"wrccId":"WANT","name":"ANTIGO","state":"WI","lat":45.15889,"lng":-89.11472,"elevation":1499,"agency":"S&PF","network":"RAWS","timeZone":"CST","timeZoneOffset":-6,"hasHistoric":true,"weatherHourly":true,"nfdrsHourly":true,"produceNfdrs":true,"latestObs":null},{"stationId":"55523180","femsStationId":55523180,"wrccId":null,"name":"Antlers","state":"OK","lat":34.24967,"lng":-95.66844,"elevation":564,"agency":"OK Mesonet","network":"Mesonet","timeZone":"CST","timeZoneOffset":-6,"hasHistoric":false,"weatherHourly":false,"nfdrsHourly":true,"produceNfdrs":true,"latestObs":null},{"stationId":"55522973","femsStationId":55522973,"wrccId":null,"name":"Anton 6SSW","state":"TX","lat":33.72525,"lng":-102.19082,"elevation":3405,"agency":"WestTX Mesonet","network":"Mesonet","timeZone":"CST","timeZoneOffset":-6,"hasHistoric":false,"weatherHourly":false,"nfdrsHourly":true,"produceNfdrs":true,"latestObs":null},{"stationId":"45616","femsStationId":55522012,"wrccId":"CANZ","name":"ANZA","state":"CA","lat":33.55586,"lng":-116.67454,"elevation":3939,"agency":"S&PF","network":"RAWS","timeZone":"PST","timeZoneOffset":-8,"hasHistoric":true,"weatherHourly":true,"nfdrsHourly":true,"produceNfdrs":true,"latestObs":null},{"stationId":"55523178","femsStationId":55523178,"wrccId":null,"name":"Apache","state":"OK","lat":34.91418,"lng":-98.29216,"elevation":1443,"agency":"OK Mesonet","network":"Mesonet","timeZone":"CST","timeZoneOffset":-6,"hasHistoric":false,"weatherHourly":false,"nfdrsHourly":true,"produceNfdrs":true,"latestObs":null},{"stationId":"55522431","femsStationId":55522431,"wrccId":null,"name":"Apalachicola, Apalachicola","state":"FL","lat":29.72694,"lng":-85.02472,"elevation":20,"agency":"NWS","network":"ASOS","timeZone":"EST","timeZoneOffset":-5,"hasHistoric":false,"weatherHourly":true,"nfdrsHourly":true,"produceNfdrs":true,"latestObs":null},{"stationId":"473402","femsStationId":55522034,"wrccId":"WAPP","name":"APPLETON","state":"WI","lat":44.28748,"lng":-88.45922,"elevation":830,"agency":"S&PF","network":"RAWS","timeZone":"CST","timeZoneOffset":-6,"hasHistoric":true,"weatherHourly":true,"nfdrsHourly":true,"produceNfdrs":true,"latestObs":null},{"stationId":"45134","femsStationId":55520551,"wrccId":"CAPP","name":"APPLE VALLEY 2","state":"CA","lat":34.59259,"lng":-117.1683,"elevation":3159,"agency":"BLM","network":"RAWS","timeZone":"PST","timeZoneOffset":-8,"hasHistoric":true,"weatherHourly":true,"nfdrsHourly":true,"produceNfdrs":true,"latestObs":null},{"stationId":"55522199","femsStationId":55522199,"wrccId":"VAPP","name":"APPOMATTOX","state":"VA","lat":37.39208,"lng":-78.79717,"elevation":773,"agency":"NPS","network":"RAWS","timeZone":"EST","timeZoneOffset":-5,"hasHistoric":false,"weatherHourly":true,"nfdrsHourly":true,"produceNfdrs":true,"latestObs":null},{"stationId":"55523544","femsStationId":55523544,"wrccId":null,"name":"Aquilla Water Supply District","state":"TX","lat":31.92091,"lng":-97.17918,"elevation":532,"agency":"TexMesonet","network":"Mesonet","timeZone":"CST","timeZoneOffset":-6,"hasHistoric":false,"weatherHourly":true,"nfdrsHourly":true,"produceNfdrs":true,"latestObs":null},{"stationId":"420911","femsStationId":55520599,"wrccId":"ARAG","name":"ARAGONITE","state":"UT","lat":40.59828,"lng":-113.02208,"elevation":5030,"agency":"BLM","network":"RAWS","timeZone":"MST","timeZoneOffset":-7,"hasHistoric":true,"weatherHourly":true,"nfdrsHourly":true,"produceNfdrs":true,"latestObs":null},{"stationId":"418502","femsStationId":55521957,"wrccId":"TARA","name":"ARANSAS","state":"TX","lat":28.30442,"lng":-96.82344,"elevation":9,"agency":"FWS","network":"RAWS","timeZone":"CST","timeZoneOffset":-6,"hasHistoric":true,"weatherHourly":true,"nfdrsHourly":true,"produceNfdrs":true,"latestObs":null},{"stationId":"40632","femsStationId":55520916,"wrccId":"CABS","name":"ARBUCKLE BASIN","state":"CA","lat":40.43784,"lng":-122.83093,"elevation":2452,"agency":"S&PF","network":"RAWS","timeZone":"PST","timeZoneOffset":-8,"hasHistoric":true,"weatherHourly":true,"nfdrsHourly":true,"produceNfdrs":true,"latestObs":null},{"stationId":"55522200","femsStationId":55522200,"wrccId":"WARC","name":"ARCADIA ORCHARDS","state":"WA","lat":47.9075,"lng":-117.39667,"elevation":2050,"agency":"S&PF","network":"RAWS","timeZone":"PST","timeZoneOffset":-8,"hasHistoric":false,"weatherHourly":true,"nfdrsHourly":true,"produceNfdrs":true,"latestObs":null},{"stationId":"101905","femsStationId":55520982,"wrccId":"IARC","name":"ARCO","state":"ID","lat":43.62175,"lng":-113.38892,"elevation":5418,"agency":"BLM","network":"RAWS","timeZone":"MST","timeZoneOffset":-7,"hasHistoric":true,"weatherHourly":true,"nfdrsHourly":true,"produceNfdrs":true,"latestObs":null},{"stationId":"55523177","femsStationId":55523177,"wrccId":null,"name":"Ardmore","state":"OK","lat":34.19258,"lng":-97.08568,"elevation":872,"agency":"OK Mesonet","network":"Mesonet","timeZone":"CST","timeZoneOffset":-6,"hasHistoric":false,"weatherHourly":false,"nfdrsHourly":true,"produceNfdrs":true,"latestObs":null},{"stationId":"55522432","femsStationId":55522432,"wrccId":null,"name":"Arlington Municipal Airport","state":"TX","lat":32.65829,"lng":-97.09509,"elevation":587,"agency":"NWS","network":"ASOS","timeZone":"CST","timeZoneOffset":-6,"hasHistoric":false,"weatherHourly":true,"nfdrsHourly":true,"produceNfdrs":true,"latestObs":null},{"stationId":"242205","femsStationId":55520350,"wrccId":"MARM","name":"ARMELLS CREEK","state":"MT","lat":47.58875,"lng":-108.86808,"elevation":2845,"agency":"BLM","network":"RAWS","timeZone":"MST","timeZoneOffset":-7,"hasHistoric":true,"weatherHourly":true,"nfdrsHourly":true,"produceNfdrs":true,"latestObs":null},{"stationId":"32101","femsStationId":55521628,"wrccId":"AARM","name":"ARMSTEAD MOUNTAIN","state":"AR","lat":35.57306,"lng":-92.81917,"elevation":1560,"agency":"USFS","network":"RAWS","timeZone":"CST","timeZoneOffset":-6,"hasHistoric":true,"weatherHourly":true,"nfdrsHourly":true,"produceNfdrs":true,"latestObs":null},{"stationId":"90201","femsStationId":55520253,"wrccId":"GARM","name":"ARMUCHEE","state":"GA","lat":34.6997,"lng":-85.15653,"elevation":1152,"agency":"USFS","network":"RAWS","timeZone":"EST","timeZoneOffset":-5,"hasHistoric":true,"weatherHourly":true,"nfdrsHourly":true,"produceNfdrs":true,"latestObs":null},{"stationId":"55523175","femsStationId":55523175,"wrccId":null,"name":"Arnett","state":"OK","lat":36.07204,"lng":-99.90308,"elevation":2358,"agency":"OK Mesonet","network":"Mesonet","timeZone":"CST","timeZoneOffset":-6,"hasHistoric":false,"weatherHourly":false,"nfdrsHourly":true,"produceNfdrs":true,"latestObs":null},{"stationId":"408901","femsStationId":55521678,"wrccId":"TARN","name":"ARNOLD AIR FORCE BASE","state":"TN","lat":35.32133,"lng":-86.03383,"elevation":995,"agency":"S&PF","network":"RAWS","timeZone":"CST","timeZoneOffset":-6,"hasHistoric":true,"weatherHourly":true,"nfdrsHourly":true,"produceNfdrs":true,"latestObs":null},{"stationId":"55523194","femsStationId":55523194,"wrccId":null,"name":"Aronsky Farms","state":"TX","lat":30.11059,"lng":-98.30463,"elevation":1320,"agency":"TexMesonet","network":"Mesonet","timeZone":"CST","timeZoneOffset":-6,"hasHistoric":false,"weatherHourly":true,"nfdrsHourly":true,"produceNfdrs":true,"latestObs":null},{"stationId":"323536","femsStationId":55520515,"wrccId":"NARR","name":"ARROWWOOD 2","state":"ND","lat":47.26667,"lng":-98.86667,"elevation":1520,"agency":"FWS","network":"RAWS","timeZone":"CST","timeZoneOffset":-6,"hasHistoric":true,"weatherHourly":true,"nfdrsHourly":true,"produceNfdrs":true,"latestObs":null},{"stationId":"44301","femsStationId":55521745,"wrccId":"CARR","name":"ARROYO SECO","state":"CA","lat":36.23548,"lng":-121.47988,"elevation":879,"agency":"USFS","network":"RAWS","timeZone":"PST","timeZoneOffset":-8,"hasHistoric":true,"weatherHourly":true,"nfdrsHourly":true,"produceNfdrs":true,"latestObs":null},{"stationId":"52301","femsStationId":55521823,"wrccId":"CRMA","name":"ARSENAL","state":"CO","lat":39.82425,"lng":-104.85572,"elevation":5257,"agency":"FWS","network":"RAWS","timeZone":"MST","timeZoneOffset":-7,"hasHistoric":true,"weatherHourly":true,"nfdrsHourly":true,"produceNfdrs":true,"latestObs":null},{"stationId":"55522201","femsStationId":55522201,"wrccId":"CARV","name":"ARVADA","state":"CO","lat":39.8421,"lng":-105.22172,"elevation":5958,"agency":"S&PF","network":"RAWS","timeZone":"MST","timeZoneOffset":-7,"hasHistoric":false,"weatherHourly":true,"nfdrsHourly":true,"produceNfdrs":true,"latestObs":null},{"stationId":"40244","femsStationId":55521311,"wrccId":"CASC","name":"ASH CREEK","state":"CA","lat":41.27681,"lng":-121.98057,"elevation":3677,"agency":"USFS","network":"RAWS","timeZone":"PST","timeZoneOffset":-8,"hasHistoric":true,"weatherHourly":true,"nfdrsHourly":true,"produceNfdrs":true,"latestObs":null},{"stationId":"55523580","femsStationId":55523580,"wrccId":null,"name":"Asheville","state":"NC","lat":35.62233,"lng":-82.56646,"elevation":2222,"agency":"NC ECONet","network":"Mesonet","timeZone":"EST","timeZoneOffset":-5,"hasHistoric":false,"weatherHourly":true,"nfdrsHourly":true,"produceNfdrs":true,"latestObs":null},{"stationId":"55522433","femsStationId":55522433,"wrccId":null,"name":"Asheville, Asheville Regional Airport","state":"NC","lat":35.43194,"lng":-82.5375,"elevation":2165,"agency":"NWS","network":"ASOS","timeZone":"EST","timeZoneOffset":-5,"hasHistoric":false,"weatherHourly":true,"nfdrsHourly":true,"produceNfdrs":true,"latestObs":null},{"stationId":"451809","femsStationId":55520608,"wrccId":"WASH","name":"ASHFORD","state":"WA","lat":46.75522,"lng":-122.10975,"elevation":1421,"agency":"S&PF","network":"RAWS","timeZone":"PST","timeZoneOffset":-8,"hasHistoric":true,"weatherHourly":true,"nfdrsHourly":true,"produceNfdrs":true,"latestObs":null},{"stationId":"232401","femsStationId":55521326,"wrccId":"MASH","name":"ASHLAND","state":"MO","lat":38.81194,"lng":-92.25694,"elevation":798,"agency":"S&PF","network":"RAWS","timeZone":"CST","timeZoneOffset":-6,"hasHistoric":true,"weatherHourly":true,"nfdrsHourly":true,"produceNfdrs":true,"latestObs":null},{"stationId":"55523472","femsStationId":55523472,"wrccId":null,"name":"Ashland 8S","state":"KS","lat":37.06476,"lng":-99.75109,"elevation":1844,"agency":"KS Mesonet","network":"Mesonet","timeZone":"CST","timeZoneOffset":-6,"hasHistoric":false,"weatherHourly":false,"nfdrsHourly":true,"produceNfdrs":true,"latestObs":null},{"stationId":"55523471","femsStationId":55523471,"wrccId":null,"name":"Ashland Bottoms","state":"KS","lat":39.12577,"lng":-96.63653,"elevation":1066,"agency":"KS Mesonet","network":"Mesonet","timeZone":"CST","timeZoneOffset":-6,"hasHistoric":false,"weatherHourly":false,"nfdrsHourly":true,"produceNfdrs":true,"latestObs":null},{"stationId":"55522434","femsStationId":55522434,"wrccId":null,"name":"Ashland, Hanover County Municipal Airport","state":"VA","lat":37.70806,"lng":-77.43444,"elevation":203,"agency":"NWS","network":"ASOS","timeZone":"EST","timeZoneOffset":-5,"hasHistoric":false,"weatherHourly":true,"nfdrsHourly":true,"produceNfdrs":true,"latestObs":null},{"stationId":"55522202","femsStationId":55522202,"wrccId":"PASE","name":"ASHLEY","state":"PA","lat":41.20006,"lng":-75.88867,"elevation":1402,"agency":"S&PF","network":"RAWS","timeZone":"EST","timeZoneOffset":-5,"hasHistoric":false,"weatherHourly":true,"nfdrsHourly":true,"produceNfdrs":true,"latestObs":null},{"stationId":"261711","femsStationId":55521518,"wrccId":"NASH","name":"ASH MEADOWS","state":"NV","lat":36.40884,"lng":-116.3383,"elevation":2091,"agency":"FWS","network":"RAWS","timeZone":"PST","timeZoneOffset":-8,"hasHistoric":true,"weatherHourly":true,"nfdrsHourly":true,"produceNfdrs":true,"latestObs":null},{"stationId":"44701","femsStationId":55520931,"wrccId":"CASM","name":"ASH MOUNTAIN","state":"CA","lat":36.49139,"lng":-118.82528,"elevation":1730,"agency":"NPS","network":"RAWS","timeZone":"PST","timeZoneOffset":-8,"hasHistoric":true,"weatherHourly":true,"nfdrsHourly":true,"produceNfdrs":true,"latestObs":null},{"stationId":"55522435","femsStationId":55522435,"wrccId":null,"name":"Ashtabula - Northeast Ohio Regional Airport","state":"OH","lat":41.77944,"lng":-80.69667,"elevation":922,"agency":"NWS","network":"ASOS","timeZone":"EST","timeZoneOffset":-5,"hasHistoric":false,"weatherHourly":true,"nfdrsHourly":true,"produceNfdrs":true,"latestObs":null},{"stationId":"55522974","femsStationId":55522974,"wrccId":null,"name":"Aspermont 3NE","state":"TX","lat":33.16789,"lng":-100.19602,"elevation":1740,"agency":"WestTX Mesonet","network":"Mesonet","timeZone":"CST","timeZoneOffset":-6,"hasHistoric":false,"weatherHourly":false,"nfdrsHourly":true,"produceNfdrs":true,"latestObs":null},{"stationId":"180335","femsStationId":55521841,"wrccId":"MASS","name":"ASSATEAGUE ISLAND","state":"MD","lat":38.08167,"lng":-75.20444,"elevation":12,"agency":"NPS","network":"RAWS","timeZone":"EST","timeZoneOffset":-5,"hasHistoric":true,"weatherHourly":true,"nfdrsHourly":true,"produceNfdrs":true,"latestObs":null},{"stationId":"422604","femsStationId":55521180,"wrccId":"ASSA","name":"ASSAY","state":"UT","lat":37.54777,"lng":-112.56515,"elevation":7914,"agency":"USFS","network":"RAWS","timeZone":"MST","timeZoneOffset":-7,"hasHistoric":true,"weatherHourly":true,"nfdrsHourly":true,"produceNfdrs":true,"latestObs":null},{"stationId":"412101","femsStationId":55521706,"wrccId":"TATH","name":"ATHENS","state":"TX","lat":32.22111,"lng":-95.76611,"elevation":470,"agency":"S&PF","network":"RAWS","timeZone":"CST","timeZoneOffset":-6,"hasHistoric":true,"weatherHourly":true,"nfdrsHourly":true,"produceNfdrs":true,"latestObs":null},{"stationId":"55522436","femsStationId":55522436,"wrccId":null,"name":"Athens, Athens Airport","state":"GA","lat":33.95083,"lng":-83.32806,"elevation":807,"agency":"NWS","network":"ASOS","timeZone":"EST","timeZoneOffset":-5,"hasHistoric":false,"weatherHourly":true,"nfdrsHourly":true,"produceNfdrs":true,"latestObs":null},{"stationId":"202301","femsStationId":55521324,"wrccId":"MATN","name":"ATLANTA","state":"MI","lat":45.14962,"lng":-84.18571,"elevation":895,"agency":"S&PF","network":"RAWS","timeZone":"EST","timeZoneOffset":-5,"hasHistoric":true,"weatherHourly":true,"nfdrsHourly":true,"produceNfdrs":true,"latestObs":null},{"stationId":"55522437","femsStationId":55522437,"wrccId":null,"name":"Atlanta, De Kalb-Peachtree Airport","state":"GA","lat":33.87833,"lng":-84.29806,"elevation":1001,"agency":"NWS","network":"ASOS","timeZone":"EST","timeZoneOffset":-5,"hasHistoric":false,"weatherHourly":true,"nfdrsHourly":true,"produceNfdrs":true,"latestObs":null},{"stationId":"55522438","femsStationId":55522438,"wrccId":null,"name":"Atlanta, Hartsfield - Jackson Atlanta International Airport","state":"GA","lat":33.64028,"lng":-84.42694,"elevation":1027,"agency":"NWS","network":"ASOS","timeZone":"EST","timeZoneOffset":-5,"hasHistoric":false,"weatherHourly":true,"nfdrsHourly":true,"produceNfdrs":true,"latestObs":null},{"stationId":"231501","femsStationId":55520753,"wrccId":"MATL","name":"ATLANTA MO","state":"MO","lat":39.86944,"lng":-92.52056,"elevation":840,"agency":"S&PF","network":"RAWS","timeZone":"CST","timeZoneOffset":-6,"hasHistoric":true,"weatherHourly":true,"nfdrsHourly":true,"produceNfdrs":true,"latestObs":null},{"stationId":"55522439","femsStationId":55522439,"wrccId":null,"name":"Atlanta Regional Airport-Falcon Field","state":"GA","lat":33.35436,"lng":-84.56893,"elevation":791,"agency":"NWS","network":"ASOS","timeZone":"EST","timeZoneOffset":-5,"hasHistoric":false,"weatherHourly":true,"nfdrsHourly":true,"produceNfdrs":true,"latestObs":null},{"stationId":"55522440","femsStationId":55522440,"wrccId":null,"name":"Atlantic City, Atlantic City International Airport","state":"NJ","lat":39.45202,"lng":-74.56699,"elevation":56,"agency":"NWS","network":"ASOS","timeZone":"EST","timeZoneOffset":-5,"hasHistoric":false,"weatherHourly":true,"nfdrsHourly":true,"produceNfdrs":true,"latestObs":null},{"stationId":"42108","femsStationId":55521201,"wrccId":"CATL","name":"ATLAS PEAK","state":"CA","lat":38.47485,"lng":-122.2648,"elevation":1934,"agency":"S&PF","network":"RAWS","timeZone":"PST","timeZoneOffset":-8,"hasHistoric":true,"weatherHourly":true,"nfdrsHourly":true,"produceNfdrs":true,"latestObs":null},{"stationId":"416601","femsStationId":55521995,"wrccId":"TATT","name":"ATTWATER NWR","state":"TX","lat":29.67042,"lng":-96.26817,"elevation":145,"agency":"FWS","network":"RAWS","timeZone":"CST","timeZoneOffset":-6,"hasHistoric":true,"weatherHourly":true,"nfdrsHourly":true,"produceNfdrs":true,"latestObs":null},{"stationId":"472801","femsStationId":55520332,"wrccId":"WAUG","name":"AUGUSTA","state":"WI","lat":44.69573,"lng":-91.13446,"elevation":970,"agency":"S&PF","network":"RAWS","timeZone":"CST","timeZoneOffset":-6,"hasHistoric":true,"weatherHourly":true,"nfdrsHourly":true,"produceNfdrs":true,"latestObs":null},{"stationId":"55522203","femsStationId":55522203,"wrccId":"VAUG","name":"AUGUSTA","state":"WV","lat":39.29917,"lng":-78.64944,"elevation":1130,"agency":"S&PF","network":"RAWS","timeZone":"EST","timeZoneOffset":-5,"hasHistoric":false,"weatherHourly":true,"nfdrsHourly":true,"produceNfdrs":true,"latestObs":null},{"stationId":"55522441","femsStationId":55522441,"wrccId":null,"name":"Augusta, Augusta State Airport","state":"ME","lat":44.32056,"lng":-69.79722,"elevation":351,"agency":"NWS","network":"ASOS","timeZone":"EST","timeZoneOffset":-5,"hasHistoric":false,"weatherHourly":true,"nfdrsHourly":true,"produceNfdrs":true,"latestObs":null},{"stationId":"55522442","femsStationId":55522442,"wrccId":null,"name":"Augusta, Bush Field","state":"GA","lat":33.36444,"lng":-81.96333,"elevation":144,"agency":"NWS","network":"ASOS","timeZone":"EST","timeZoneOffset":-5,"hasHistoric":false,"weatherHourly":true,"nfdrsHourly":true,"produceNfdrs":true,"latestObs":null},{"stationId":"55522443","femsStationId":55522443,"wrccId":null,"name":"Augusta Daniel Field","state":"GA","lat":33.4669,"lng":-82.03836,"elevation":411,"agency":"NWS","network":"ASOS","timeZone":"EST","timeZoneOffset":-5,"hasHistoric":false,"weatherHourly":true,"nfdrsHourly":true,"produceNfdrs":true,"latestObs":null},{"stationId":"55522444","femsStationId":55522444,"wrccId":null,"name":"Aurora Municipal Airport","state":"IL","lat":41.77132,"lng":-88.48147,"elevation":696,"agency":"NWS","network":"ASOS","timeZone":"CST","timeZoneOffset":-6,"hasHistoric":false,"weatherHourly":true,"nfdrsHourly":true,"produceNfdrs":true,"latestObs":null},{"stationId":"260501","femsStationId":55521782,"wrccId":"NAUS","name":"AUSTIN","state":"NV","lat":39.50306,"lng":-117.08139,"elevation":6310,"agency":"USFS","network":"RAWS","timeZone":"PST","timeZoneOffset":-8,"hasHistoric":true,"weatherHourly":true,"nfdrsHourly":true,"produceNfdrs":true,"latestObs":null},{"stationId":"55522445","femsStationId":55522445,"wrccId":null,"name":"Austin-Bergstrom International Airport","state":"TX","lat":30.18304,"lng":-97.67987,"elevation":486,"agency":"NWS","network":"ASOS","timeZone":"CST","timeZoneOffset":-6,"hasHistoric":false,"weatherHourly":true,"nfdrsHourly":true,"produceNfdrs":true,"latestObs":null},{"stationId":"55522446","femsStationId":55522446,"wrccId":null,"name":"Austin City, Austin Camp Mabry","state":"TX","lat":30.31667,"lng":-97.76667,"elevation":656,"agency":"NWS","network":"ASOS","timeZone":"CST","timeZoneOffset":-6,"hasHistoric":false,"weatherHourly":true,"nfdrsHourly":true,"produceNfdrs":true,"latestObs":null},{"stationId":"55522204","femsStationId":55522204,"wrccId":"TNAU","name":"AUSTIN NORTH","state":"TX","lat":30.45878,"lng":-97.70264,"elevation":940,"agency":"S&PF","network":"RAWS","timeZone":"CST","timeZoneOffset":-6,"hasHistoric":false,"weatherHourly":true,"nfdrsHourly":true,"produceNfdrs":true,"latestObs":null},{"stationId":"55522205","femsStationId":55522205,"wrccId":"TSEA","name":"AUSTIN SOUTH EAST","state":"TX","lat":30.10064,"lng":-97.74367,"elevation":690,"agency":"S&PF","network":"RAWS","timeZone":"CST","timeZoneOffset":-6,"hasHistoric":false,"weatherHourly":true,"nfdrsHourly":true,"produceNfdrs":true,"latestObs":null},{"stationId":"55522206","femsStationId":55522206,"wrccId":"TSWA","name":"AUSTIN SOUTH WEST","state":"TX","lat":30.29775,"lng":-97.98733,"elevation":1138,"agency":"S&PF","network":"RAWS","timeZone":"CST","timeZoneOffset":-6,"hasHistoric":false,"weatherHourly":true,"nfdrsHourly":true,"produceNfdrs":true,"latestObs":null},{"stationId":"238502","femsStationId":55520481,"wrccId":"MAVA","name":"AVA","state":"MO","lat":36.64939,"lng":-92.86872,"elevation":1100,"agency":"USFS","network":"RAWS","timeZone":"CST","timeZoneOffset":-6,"hasHistoric":true,"weatherHourly":true,"nfdrsHourly":true,"produceNfdrs":true,"latestObs":null},{"stationId":"85301","femsStationId":55521668,"wrccId":"FAVO","name":"AVON PARK AF RANGE 1","state":"FL","lat":27.59533,"lng":-81.21303,"elevation":-17,"agency":"DOD","network":"RAWS","timeZone":"EST","timeZoneOffset":-5,"hasHistoric":true,"weatherHourly":true,"nfdrsHourly":true,"produceNfdrs":true,"latestObs":null},{"stationId":"55522207","femsStationId":55522207,"wrccId":"FAVN","name":"AVON PARK AFR NORTH","state":"FL","lat":27.68972,"lng":-81.32697,"elevation":117,"agency":"DOD","network":"RAWS","timeZone":"EST","timeZoneOffset":-5,"hasHistoric":false,"weatherHourly":true,"nfdrsHourly":true,"produceNfdrs":true,"latestObs":null},{"stationId":"449905","femsStationId":55521419,"wrccId":"VBAC","name":"BACK BAY","state":"VA","lat":36.67198,"lng":-75.91625,"elevation":5,"agency":"FWS","network":"RAWS","timeZone":"EST","timeZoneOffset":-5,"hasHistoric":true,"weatherHourly":true,"nfdrsHourly":true,"produceNfdrs":true,"latestObs":null},{"stationId":"40518","femsStationId":55521299,"wrccId":"CBAC","name":"BACKBONE","state":"CA","lat":40.88929,"lng":-123.14251,"elevation":4609,"agency":"USFS","network":"RAWS","timeZone":"PST","timeZoneOffset":-8,"hasHistoric":true,"weatherHourly":true,"nfdrsHourly":true,"produceNfdrs":true,"latestObs":null},{"stationId":"319402","femsStationId":55521265,"wrccId":"NBAC","name":"BACK ISLAND","state":"NC","lat":34.5328,"lng":-77.7219,"elevation":29,"agency":"S&PF","network":"RAWS","timeZone":"EST","timeZoneOffset":-5,"hasHistoric":true,"weatherHourly":true,"nfdrsHourly":true,"produceNfdrs":true,"latestObs":null},{"stationId":"352711","femsStationId":55520529,"wrccId":"OBAD","name":"BADGER CREEK","state":"OR","lat":44.03386,"lng":-120.40722,"elevation":5710,"agency":"USFS","network":"RAWS","timeZone":"PST","timeZoneOffset":-8,"hasHistoric":true,"weatherHourly":true,"nfdrsHourly":true,"produceNfdrs":true,"latestObs":null},{"stationId":"243902","femsStationId":55522057,"wrccId":"MBAP","name":"BADGER PEAK","state":"MT","lat":45.64813,"lng":-106.50274,"elevation":4383,"agency":"BIA","network":"RAWS","timeZone":"MST","timeZoneOffset":-7,"hasHistoric":true,"weatherHourly":true,"nfdrsHourly":true,"produceNfdrs":true,"latestObs":null},{"stationId":"422806","femsStationId":55521764,"wrccId":"BADG","name":"BADGER SPRING","state":"UT","lat":37.15067,"lng":-113.954,"elevation":3990,"agency":"BLM","network":"RAWS","timeZone":"MST","timeZoneOffset":-7,"hasHistoric":true,"weatherHourly":true,"nfdrsHourly":true,"produceNfdrs":true,"latestObs":null},{"stationId":"211502","femsStationId":55521390,"wrccId":"MBDA","name":"BADOURA","state":"MN","lat":46.86158,"lng":-94.72936,"elevation":1475,"agency":"S&PF","network":"RAWS","timeZone":"CST","timeZoneOffset":-6,"hasHistoric":true,"weatherHourly":true,"nfdrsHourly":true,"produceNfdrs":true,"latestObs":null},{"stationId":"52001","femsStationId":55522085,"wrccId":"CBAI","name":"BAILEY","state":"CO","lat":39.37944,"lng":-105.33833,"elevation":7982,"agency":"USFS","network":"RAWS","timeZone":"MST","timeZoneOffset":-7,"hasHistoric":true,"weatherHourly":true,"nfdrsHourly":true,"produceNfdrs":true,"latestObs":null},{"stationId":"120201","femsStationId":55521989,"wrccId":"IBAI","name":"BAILLY","state":"IN","lat":41.63167,"lng":-87.08778,"elevation":647,"agency":"NPS","network":"RAWS","timeZone":"EST","timeZoneOffset":-5,"hasHistoric":true,"weatherHourly":true,"nfdrsHourly":true,"produceNfdrs":true,"latestObs":null},{"stationId":"55522208","femsStationId":55522208,"wrccId":"GBAI","name":"BAINBRIDGE","state":"GA","lat":30.97062,"lng":-84.63435,"elevation":2451,"agency":"S&PF","network":"RAWS","timeZone":"EST","timeZoneOffset":-5,"hasHistoric":false,"weatherHourly":true,"nfdrsHourly":true,"produceNfdrs":true,"latestObs":null},{"stationId":"55522209","femsStationId":55522209,"wrccId":"WBAI","name":"BAINBRIDGE ISLAND","state":"WA","lat":47.70225,"lng":-122.5485,"elevation":152,"agency":"S&PF","network":"RAWS","timeZone":"PST","timeZoneOffset":-8,"hasHistoric":false,"weatherHourly":true,"nfdrsHourly":true,"produceNfdrs":true,"latestObs":null},{"stationId":"392606","femsStationId":55520810,"wrccId":"SBAK","name":"BAKER PARK","state":"SD","lat":43.97917,"lng":-103.425,"elevation":4674,"agency":"USFS","network":"RAWS","timeZone":"MST","timeZoneOffset":-7,"hasHistoric":true,"weatherHourly":true,"nfdrsHourly":true,"produceNfdrs":true,"latestObs":null},{"stationId":"55523263","femsStationId":55523263,"wrccId":null,"name":"Baker Ranch","state":"TX","lat":29.65083,"lng":-97.83356,"elevation":600,"agency":"TexMesonet","network":"Mesonet","timeZone":"CST","timeZoneOffset":-6,"hasHistoric":false,"weatherHourly":true,"nfdrsHourly":true,"produceNfdrs":true,"latestObs":null},{"stationId":"55522210","femsStationId":55522210,"wrccId":"AHBB","name":"BAKERS TANK","state":"AZ","lat":32.61528,"lng":-114.00836,"elevation":563,"agency":"DOD","network":"RAWS","timeZone":"MST","timeZoneOffset":-7,"hasHistoric":false,"weatherHourly":true,"nfdrsHourly":true,"produceNfdrs":true,"latestObs":null},{"stationId":"55523571","femsStationId":55523571,"wrccId":null,"name":"Baker Suave Lomas","state":"TX","lat":29.81788,"lng":-101.6129,"elevation":1421,"agency":"TexMesonet","network":"Mesonet","timeZone":"CST","timeZoneOffset":-6,"hasHistoric":false,"weatherHourly":true,"nfdrsHourly":true,"produceNfdrs":true,"latestObs":null},{"stationId":"417902","femsStationId":55521516,"wrccId":"TBEL","name":"BALCONES","state":"TX","lat":30.5665,"lng":-98.03875,"elevation":1042,"agency":"FWS","network":"RAWS","timeZone":"CST","timeZoneOffset":-6,"hasHistoric":true,"weatherHourly":true,"nfdrsHourly":true,"produceNfdrs":true,"latestObs":null},{"stationId":"417903","femsStationId":55520596,"wrccId":"TBFX","name":"BALCONES FLYING X","state":"TX","lat":30.62987,"lng":-98.08192,"elevation":1380,"agency":"FWS","network":"RAWS","timeZone":"CST","timeZoneOffset":-6,"hasHistoric":true,"weatherHourly":true,"nfdrsHourly":true,"produceNfdrs":true,"latestObs":null},{"stationId":"352813","femsStationId":55520693,"wrccId":"OBKL","name":"BALD KNOB","state":"OR","lat":42.69361,"lng":-124.03944,"elevation":3630,"agency":"USFS","network":"RAWS","timeZone":"PST","timeZoneOffset":-8,"hasHistoric":true,"weatherHourly":true,"nfdrsHourly":true,"produceNfdrs":true,"latestObs":null},{"stationId":"353522","femsStationId":55521802,"wrccId":"OBAL","name":"BALD MTN","state":"OR","lat":43.55742,"lng":-118.40708,"elevation":5592,"agency":"BLM","network":"RAWS","timeZone":"PST","timeZoneOffset":-8,"hasHistoric":true,"weatherHourly":true,"nfdrsHourly":true,"produceNfdrs":true,"latestObs":null},{"stationId":"42603","femsStationId":55521718,"wrccId":"CBAL","name":"BALD MTN LOC","state":"CA","lat":38.90417,"lng":-120.70522,"elevation":4613,"agency":"USFS","network":"RAWS","timeZone":"PST","timeZoneOffset":-8,"hasHistoric":true,"weatherHourly":true,"nfdrsHourly":true,"produceNfdrs":true,"latestObs":null},{"stationId":"203802","femsStationId":55520740,"wrccId":"MBAL","name":"BALDWIN","state":"MI","lat":43.87664,"lng":-85.85003,"elevation":820,"agency":"USFS","network":"RAWS","timeZone":"EST","timeZoneOffset":-5,"hasHistoric":true,"weatherHourly":true,"nfdrsHourly":true,"produceNfdrs":true,"latestObs":null},{"stationId":"55523358","femsStationId":55523358,"wrccId":null,"name":"Ballston Spa","state":"NY","lat":43.0228,"lng":-73.87498,"elevation":395,"agency":"NY Mesonet","network":"Mesonet","timeZone":"EST","timeZoneOffset":-5,"hasHistoric":false,"weatherHourly":false,"nfdrsHourly":true,"produceNfdrs":true,"latestObs":null},{"stationId":"55522447","femsStationId":55522447,"wrccId":null,"name":"Baltimore, Baltimore-Washington International Airport","state":"MD","lat":39.17329,"lng":-76.68404,"elevation":135,"agency":"NWS","network":"ASOS","timeZone":"EST","timeZoneOffset":-5,"hasHistoric":false,"weatherHourly":true,"nfdrsHourly":true,"produceNfdrs":true,"latestObs":null},{"stationId":"41201","femsStationId":55520361,"wrccId":"CBGR","name":"BANGOR","state":"CA","lat":39.38075,"lng":-121.38623,"elevation":803,"agency":"S&PF","network":"RAWS","timeZone":"PST","timeZoneOffset":-8,"hasHistoric":true,"weatherHourly":true,"nfdrsHourly":true,"produceNfdrs":true,"latestObs":null},{"stationId":"55522448","femsStationId":55522448,"wrccId":null,"name":"Bangor, Bangor International Airport","state":"ME","lat":44.79722,"lng":-68.81861,"elevation":190,"agency":"NWS","network":"ASOS","timeZone":"EST","timeZoneOffset":-5,"hasHistoric":false,"weatherHourly":true,"nfdrsHourly":true,"produceNfdrs":true,"latestObs":null},{"stationId":"10702","femsStationId":55521891,"wrccId":"ABAN","name":"BANKHEAD","state":"AL","lat":34.34417,"lng":-87.3375,"elevation":970,"agency":"USFS","network":"RAWS","timeZone":"CST","timeZoneOffset":-6,"hasHistoric":true,"weatherHourly":true,"nfdrsHourly":true,"produceNfdrs":true,"latestObs":null},{"stationId":"43211","femsStationId":55521322,"wrccId":"CBNR","name":"BANNER ROAD","state":"CA","lat":38.28442,"lng":-120.48975,"elevation":2803,"agency":"S&PF","network":"RAWS","timeZone":"PST","timeZoneOffset":-8,"hasHistoric":true,"weatherHourly":true,"nfdrsHourly":true,"produceNfdrs":true,"latestObs":null},{"stationId":"45601","femsStationId":55520321,"wrccId":"CBNN","name":"BANNING","state":"CA","lat":33.97342,"lng":-116.91251,"elevation":3607,"agency":"USFS","network":"RAWS","timeZone":"PST","timeZoneOffset":-8,"hasHistoric":true,"weatherHourly":true,"nfdrsHourly":true,"produceNfdrs":true,"latestObs":null},{"stationId":"200504","femsStationId":55521292,"wrccId":"MBPN","name":"BARAGA PLAINS","state":"MI","lat":46.59761,"lng":-88.62569,"elevation":1298,"agency":"USFS","network":"RAWS","timeZone":"EST","timeZoneOffset":-5,"hasHistoric":true,"weatherHourly":true,"nfdrsHourly":true,"produceNfdrs":true,"latestObs":null},{"stationId":"42308","femsStationId":55520263,"wrccId":"CBAR","name":"BARNABY","state":"CA","lat":38.02806,"lng":-122.70222,"elevation":810,"agency":"NPS","network":"RAWS","timeZone":"PST","timeZoneOffset":-8,"hasHistoric":true,"weatherHourly":true,"nfdrsHourly":true,"produceNfdrs":true,"latestObs":null},{"stationId":"470202","femsStationId":55520900,"wrccId":"WBAR","name":"BARNES","state":"WI","lat":46.34417,"lng":-91.54333,"elevation":1210,"agency":"S&PF","network":"RAWS","timeZone":"CST","timeZoneOffset":-6,"hasHistoric":true,"weatherHourly":true,"nfdrsHourly":true,"produceNfdrs":true,"latestObs":null},{"stationId":"417701","femsStationId":55520275,"wrccId":"TBAR","name":"BARNHART","state":"TX","lat":30.98556,"lng":-101.15778,"elevation":2562,"agency":"S&PF","network":"RAWS","timeZone":"CST","timeZoneOffset":-6,"hasHistoric":true,"weatherHourly":true,"nfdrsHourly":true,"produceNfdrs":true,"latestObs":null},{"stationId":"42616","femsStationId":55521477,"wrccId":"CBRN","name":"BARON","state":"CA","lat":38.85445,"lng":-120.02428,"elevation":6336,"agency":"USFS","network":"RAWS","timeZone":"PST","timeZoneOffset":-8,"hasHistoric":true,"weatherHourly":true,"nfdrsHourly":true,"produceNfdrs":true,"latestObs":null},{"stationId":"260111","femsStationId":55520613,"wrccId":"NBAR","name":"BARREL SPRINGS","state":"NV","lat":41.91072,"lng":-119.93933,"elevation":5731,"agency":"BLM","network":"RAWS","timeZone":"PST","timeZoneOffset":-8,"hasHistoric":true,"weatherHourly":true,"nfdrsHourly":true,"produceNfdrs":true,"latestObs":null},{"stationId":"55522449","femsStationId":55522449,"wrccId":null,"name":"Barre / Montpelier, Knapp State Airport","state":"VT","lat":44.20472,"lng":-72.56611,"elevation":1165,"agency":"NWS","network":"ASOS","timeZone":"EST","timeZoneOffset":-5,"hasHistoric":false,"weatherHourly":true,"nfdrsHourly":true,"produceNfdrs":true,"latestObs":null},{"stationId":"55522211","femsStationId":55522211,"wrccId":"CBRT","name":"BARRETT","state":"CA","lat":32.6675,"lng":-116.69944,"elevation":2395,"agency":"OTHR","network":"RAWS","timeZone":"PST","timeZoneOffset":-8,"hasHistoric":false,"weatherHourly":true,"nfdrsHourly":true,"produceNfdrs":true,"latestObs":null},{"stationId":"55522450","femsStationId":55522450,"wrccId":null,"name":"Bartlesville, Bartlesville Municipal Airport","state":"OK","lat":36.76833,"lng":-96.02611,"elevation":712,"agency":"NWS","network":"ASOS","timeZone":"CST","timeZoneOffset":-6,"hasHistoric":false,"weatherHourly":true,"nfdrsHourly":true,"produceNfdrs":true,"latestObs":null},{"stationId":"291002","femsStationId":55522003,"wrccId":"XBAR","name":"BARTLEY","state":"NM","lat":35.90875,"lng":-105.38769,"elevation":9192,"agency":"USFS","network":"RAWS","timeZone":"MST","timeZoneOffset":-7,"hasHistoric":true,"weatherHourly":true,"nfdrsHourly":true,"produceNfdrs":true,"latestObs":null},{"stationId":"203001","femsStationId":55520633,"wrccId":"MBCI","name":"BARTON CITY","state":"MI","lat":44.66484,"lng":-83.58762,"elevation":833,"agency":"S&PF","network":"RAWS","timeZone":"EST","timeZoneOffset":-5,"hasHistoric":true,"weatherHourly":true,"nfdrsHourly":true,"produceNfdrs":true,"latestObs":null},{"stationId":"353520","femsStationId":55520741,"wrccId":"OBAS","name":"BASQUE HILLS","state":"OR","lat":42.25472,"lng":-118.96778,"elevation":5080,"agency":"BLM","network":"RAWS","timeZone":"PST","timeZoneOffset":-8,"hasHistoric":true,"weatherHourly":true,"nfdrsHourly":true,"produceNfdrs":true,"latestObs":null},{"stationId":"415501","femsStationId":55521243,"wrccId":"TBAS","name":"BASTROP","state":"TX","lat":30.20139,"lng":-97.30361,"elevation":383,"agency":"S&PF","network":"RAWS","timeZone":"CST","timeZoneOffset":-6,"hasHistoric":true,"weatherHourly":true,"nfdrsHourly":true,"produceNfdrs":true,"latestObs":null},{"stationId":"55523345","femsStationId":55523345,"wrccId":null,"name":"Batavia","state":"NY","lat":43.01994,"lng":-78.13566,"elevation":906,"agency":"NY Mesonet","network":"Mesonet","timeZone":"EST","timeZoneOffset":-5,"hasHistoric":false,"weatherHourly":false,"nfdrsHourly":true,"produceNfdrs":true,"latestObs":null},{"stationId":"293101","femsStationId":55522036,"wrccId":"XBAD","name":"BATDRAW","state":"NM","lat":32.17861,"lng":-104.44056,"elevation":4425,"agency":"NPS","network":"RAWS","timeZone":"MST","timeZoneOffset":-7,"hasHistoric":true,"weatherHourly":true,"nfdrsHourly":true,"produceNfdrs":true,"latestObs":null},{"stationId":"55522451","femsStationId":55522451,"wrccId":null,"name":"Baton Rouge, Baton Rouge Metropolitan, Ryan Field","state":"LA","lat":30.53722,"lng":-91.14694,"elevation":69,"agency":"NWS","network":"ASOS","timeZone":"CST","timeZoneOffset":-6,"hasHistoric":false,"weatherHourly":true,"nfdrsHourly":true,"produceNfdrs":true,"latestObs":null},{"stationId":"44207","femsStationId":55521661,"wrccId":"CBAT","name":"BATTERSON","state":"CA","lat":37.37972,"lng":-119.63108,"elevation":3237,"agency":"USFS","network":"RAWS","timeZone":"PST","timeZoneOffset":-8,"hasHistoric":true,"weatherHourly":true,"nfdrsHourly":true,"produceNfdrs":true,"latestObs":null},{"stationId":"55522452","femsStationId":55522452,"wrccId":null,"name":"Battle Creek Executive Airport","state":"MI","lat":42.31197,"lng":-85.24144,"elevation":925,"agency":"NWS","network":"ASOS","timeZone":"EST","timeZoneOffset":-5,"hasHistoric":false,"weatherHourly":true,"nfdrsHourly":true,"produceNfdrs":true,"latestObs":null},{"stationId":"55522212","femsStationId":55522212,"wrccId":"MBAT","name":"BATTLE RIDGE","state":"MT","lat":45.88317,"lng":-110.89511,"elevation":6805,"agency":"USFS","network":"RAWS","timeZone":"MST","timeZoneOffset":-7,"hasHistoric":false,"weatherHourly":true,"nfdrsHourly":true,"produceNfdrs":true,"latestObs":null},{"stationId":"210301","femsStationId":55520308,"wrccId":"MBAU","name":"BAUDETTE","state":"MN","lat":48.67028,"lng":-94.61722,"elevation":1113,"agency":"S&PF","network":"RAWS","timeZone":"CST","timeZoneOffset":-6,"hasHistoric":true,"weatherHourly":true,"nfdrsHourly":true,"produceNfdrs":true,"latestObs":null},{"stationId":"55522453","femsStationId":55522453,"wrccId":null,"name":"Baudette International Airport","state":"MN","lat":48.72605,"lng":-94.61215,"elevation":1079,"agency":"NWS","network":"ASOS","timeZone":"CST","timeZoneOffset":-6,"hasHistoric":false,"weatherHourly":true,"nfdrsHourly":true,"produceNfdrs":true,"latestObs":null},{"stationId":"97701","femsStationId":55520449,"wrccId":"GBAX","name":"BAXLEY","state":"GA","lat":31.71361,"lng":-82.38778,"elevation":195,"agency":"S&PF","network":"RAWS","timeZone":"EST","timeZoneOffset":-5,"hasHistoric":true,"weatherHourly":true,"nfdrsHourly":true,"produceNfdrs":true,"latestObs":null},{"stationId":"55522454","femsStationId":55522454,"wrccId":null,"name":"Baxter County Airport","state":"AR","lat":36.37056,"lng":-92.47194,"elevation":925,"agency":"NWS","network":"ASOS","timeZone":"CST","timeZoneOffset":-6,"hasHistoric":false,"weatherHourly":true,"nfdrsHourly":true,"produceNfdrs":true,"latestObs":null},{"stationId":"240119","femsStationId":55520357,"wrccId":"MBCB","name":"BC BALDY","state":"MT","lat":48.62495,"lng":-115.58102,"elevation":4190,"agency":"USFS","network":"RAWS","timeZone":"MST","timeZoneOffset":-7,"hasHistoric":true,"weatherHourly":true,"nfdrsHourly":true,"produceNfdrs":true,"latestObs":null},{"stationId":"55523346","femsStationId":55523346,"wrccId":null,"name":"Beacon","state":"NY","lat":41.52875,"lng":-73.94527,"elevation":296,"agency":"NY Mesonet","network":"Mesonet","timeZone":"EST","timeZoneOffset":-5,"hasHistoric":false,"weatherHourly":false,"nfdrsHourly":true,"produceNfdrs":true,"latestObs":null},{"stationId":"260505","femsStationId":55521904,"wrccId":"NBEA","name":"BEACON LIGHT","state":"NV","lat":40.56633,"lng":-116.75769,"elevation":4789,"agency":"BLM","network":"RAWS","timeZone":"PST","timeZoneOffset":-8,"hasHistoric":true,"weatherHourly":true,"nfdrsHourly":true,"produceNfdrs":true,"latestObs":null},{"stationId":"119701","femsStationId":55521614,"wrccId":"IBNR","name":"BEAN RIDGE","state":"IL","lat":37.24861,"lng":-89.37861,"elevation":700,"agency":"USFS","network":"RAWS","timeZone":"CST","timeZoneOffset":-6,"hasHistoric":true,"weatherHourly":true,"nfdrsHourly":true,"produceNfdrs":true,"latestObs":null},{"stationId":"202010","femsStationId":55522149,"wrccId":"MBRR","name":"BEAR","state":"MI","lat":44.76115,"lng":-86.05864,"elevation":788,"agency":"NPS","network":"RAWS","timeZone":"EST","timeZoneOffset":-5,"hasHistoric":true,"weatherHourly":true,"nfdrsHourly":true,"produceNfdrs":true,"latestObs":null},{"stationId":"270131","femsStationId":55522010,"wrccId":"NBRB","name":"BEAR BROOK","state":"NH","lat":43.15677,"lng":-71.37684,"elevation":365,"agency":"S&PF","network":"RAWS","timeZone":"EST","timeZoneOffset":-5,"hasHistoric":true,"weatherHourly":true,"nfdrsHourly":true,"produceNfdrs":true,"latestObs":null},{"stationId":"53905","femsStationId":55522006,"wrccId":"CBRC","name":"BEAR CREEK","state":"CO","lat":38.44858,"lng":-105.94836,"elevation":9361,"agency":"USFS","network":"RAWS","timeZone":"MST","timeZoneOffset":-7,"hasHistoric":true,"weatherHourly":true,"nfdrsHourly":true,"produceNfdrs":true,"latestObs":null},{"stationId":"391201","femsStationId":55520806,"wrccId":"SBEA","name":"BEAR CREEK","state":"SD","lat":45.05696,"lng":-101.46771,"elevation":2290,"agency":"BIA","network":"RAWS","timeZone":"MST","timeZoneOffset":-7,"hasHistoric":true,"weatherHourly":true,"nfdrsHourly":true,"produceNfdrs":true,"latestObs":null},{"stationId":"40313","femsStationId":55522160,"wrccId":"CBRF","name":"BEAR FLAT","state":"CA","lat":41.29532,"lng":-120.31402,"elevation":5972,"agency":"USFS","network":"RAWS","timeZone":"PST","timeZoneOffset":-8,"hasHistoric":true,"weatherHourly":true,"nfdrsHourly":true,"produceNfdrs":true,"latestObs":null},{"stationId":"55522213","femsStationId":55522213,"wrccId":null,"name":"BEAR GAP","state":"PA","lat":40.83595,"lng":-76.54469,"elevation":845,"agency":"S&PF","network":"RAWS","timeZone":"EST","timeZoneOffset":-5,"hasHistoric":false,"weatherHourly":true,"nfdrsHourly":true,"produceNfdrs":true,"latestObs":null},{"stationId":"360272","femsStationId":55520516,"wrccId":"PBRK","name":"BEAR KNOB","state":"PA","lat":40.93158,"lng":-77.94656,"elevation":2229,"agency":"S&PF","network":"RAWS","timeZone":"EST","timeZoneOffset":-5,"hasHistoric":true,"weatherHourly":true,"nfdrsHourly":true,"produceNfdrs":true,"latestObs":null},{"stationId":"480605","femsStationId":55520779,"wrccId":"WBEA","name":"BEAR LODGE","state":"WY","lat":44.59722,"lng":-104.42806,"elevation":5280,"agency":"USFS","network":"RAWS","timeZone":"MST","timeZoneOffset":-7,"hasHistoric":true,"weatherHourly":true,"nfdrsHourly":true,"produceNfdrs":true,"latestObs":null},{"stationId":"44730","femsStationId":55520564,"wrccId":"CBEA","name":"BEAR PEAK","state":"CA","lat":35.88194,"lng":-118.07556,"elevation":8228,"agency":"BLM","network":"RAWS","timeZone":"PST","timeZoneOffset":-8,"hasHistoric":true,"weatherHourly":true,"nfdrsHourly":true,"produceNfdrs":true,"latestObs":null},{"stationId":"420703","femsStationId":55521119,"wrccId":"BEAR","name":"BEAR RIVER","state":"UT","lat":40.88444,"lng":-110.82917,"elevation":8536,"agency":"USFS","network":"RAWS","timeZone":"MST","timeZoneOffset":-7,"hasHistoric":true,"weatherHourly":true,"nfdrsHourly":true,"produceNfdrs":true,"latestObs":null},{"stationId":"361071","femsStationId":55521411,"wrccId":"PBEA","name":"BEARS HEAD","state":"PA","lat":40.80942,"lng":-76.011,"elevation":1172,"agency":"S&PF","network":"RAWS","timeZone":"EST","timeZoneOffset":-5,"hasHistoric":true,"weatherHourly":true,"nfdrsHourly":true,"produceNfdrs":true,"latestObs":null},{"stationId":"101221","femsStationId":55520430,"wrccId":"IBEA","name":"BEARSKIN CREEK","state":"ID","lat":44.38556,"lng":-115.5505,"elevation":7137,"agency":"USFS","network":"RAWS","timeZone":"MST","timeZoneOffset":-7,"hasHistoric":true,"weatherHourly":true,"nfdrsHourly":true,"produceNfdrs":true,"latestObs":null},{"stationId":"55523304","femsStationId":55523304,"wrccId":null,"name":"Bearwallow Mountain","state":"NC","lat":35.461,"lng":-82.358,"elevation":4219,"agency":"NC ECONet","network":"Mesonet","timeZone":"EST","timeZoneOffset":-5,"hasHistoric":false,"weatherHourly":true,"nfdrsHourly":true,"produceNfdrs":true,"latestObs":null},{"stationId":"317801","femsStationId":55521308,"wrccId":"NBFT","name":"BEAUFORT","state":"NC","lat":35.52081,"lng":-76.93183,"elevation":55,"agency":"S&PF","network":"RAWS","timeZone":"EST","timeZoneOffset":-5,"hasHistoric":true,"weatherHourly":true,"nfdrsHourly":true,"produceNfdrs":true,"latestObs":null},{"stationId":"55522455","femsStationId":55522455,"wrccId":null,"name":"Beaufort Smith Field","state":"NC","lat":34.73259,"lng":-76.6566,"elevation":3,"agency":"NWS","network":"ASOS","timeZone":"EST","timeZoneOffset":-5,"hasHistoric":false,"weatherHourly":true,"nfdrsHourly":true,"produceNfdrs":true,"latestObs":null},{"stationId":"45617","femsStationId":55521777,"wrccId":"CBEU","name":"BEAUMONT","state":"CA","lat":33.96352,"lng":-117.00685,"elevation":2588,"agency":"S&PF","network":"RAWS","timeZone":"PST","timeZoneOffset":-8,"hasHistoric":true,"weatherHourly":true,"nfdrsHourly":true,"produceNfdrs":true,"latestObs":null},{"stationId":"55522456","femsStationId":55522456,"wrccId":null,"name":"Beaumont/Port Arthur Southeast Texas Regional Airport","state":"TX","lat":29.9521,"lng":-94.0261,"elevation":13,"agency":"NWS","network":"ASOS","timeZone":"CST","timeZoneOffset":-6,"hasHistoric":false,"weatherHourly":true,"nfdrsHourly":true,"produceNfdrs":true,"latestObs":null},{"stationId":"55523173","femsStationId":55523173,"wrccId":null,"name":"Beaver","state":"OK","lat":36.80253,"lng":-100.53012,"elevation":2486,"agency":"OK Mesonet","network":"Mesonet","timeZone":"CST","timeZoneOffset":-6,"hasHistoric":false,"weatherHourly":false,"nfdrsHourly":true,"produceNfdrs":true,"latestObs":null},{"stationId":"42601","femsStationId":55521561,"wrccId":"CBVR","name":"BEAVER","state":"CA","lat":38.4819,"lng":-120.31582,"elevation":4651,"agency":"USFS","network":"RAWS","timeZone":"PST","timeZoneOffset":-8,"hasHistoric":true,"weatherHourly":true,"nfdrsHourly":true,"produceNfdrs":true,"latestObs":null},{"stationId":"292001","femsStationId":55520861,"wrccId":"XBEA","name":"BEAVERHEAD","state":"NM","lat":33.42361,"lng":-108.11,"elevation":6659,"agency":"USFS","network":"RAWS","timeZone":"MST","timeZoneOffset":-7,"hasHistoric":true,"weatherHourly":true,"nfdrsHourly":true,"produceNfdrs":true,"latestObs":null},{"stationId":"500418","femsStationId":55520298,"wrccId":"ABEV","name":"BEAVER (WBQ)","state":"AK","lat":66.26178,"lng":-146.53175,"elevation":483,"agency":"FWS","network":"RAWS","timeZone":"AKST","timeZoneOffset":-9,"hasHistoric":true,"weatherHourly":true,"nfdrsHourly":true,"produceNfdrs":true,"latestObs":null},{"stationId":"480101","femsStationId":55520687,"wrccId":"WBEC","name":"BECHLER","state":"WY","lat":44.14939,"lng":-111.04479,"elevation":6400,"agency":"NPS","network":"RAWS","timeZone":"MST","timeZoneOffset":-7,"hasHistoric":true,"weatherHourly":true,"nfdrsHourly":true,"produceNfdrs":true,"latestObs":null},{"stationId":"55522457","femsStationId":55522457,"wrccId":null,"name":"Beckley, Raleigh County Memorial Airport","state":"WV","lat":37.795,"lng":-81.12472,"elevation":2503,"agency":"NWS","network":"ASOS","timeZone":"EST","timeZoneOffset":-5,"hasHistoric":false,"weatherHourly":true,"nfdrsHourly":true,"produceNfdrs":true,"latestObs":null},{"stationId":"464302","femsStationId":55520304,"wrccId":"VBFK","name":"BEECH FORK","state":"WV","lat":38.30056,"lng":-82.41722,"elevation":735,"agency":"S&PF","network":"RAWS","timeZone":"EST","timeZoneOffset":-5,"hasHistoric":true,"weatherHourly":true,"nfdrsHourly":true,"produceNfdrs":true,"latestObs":null},{"stationId":"463802","femsStationId":55520463,"wrccId":"VBEE","name":"BEE MOUNTAIN","state":"WV","lat":38.20028,"lng":-81.62,"elevation":1353,"agency":"S&PF","network":"RAWS","timeZone":"EST","timeZoneOffset":-5,"hasHistoric":true,"weatherHourly":true,"nfdrsHourly":true,"produceNfdrs":true,"latestObs":null},{"stationId":"55523347","femsStationId":55523347,"wrccId":null,"name":"Belden","state":"NY","lat":42.22322,"lng":-75.66852,"elevation":1543,"agency":"NY Mesonet","network":"Mesonet","timeZone":"EST","timeZoneOffset":-5,"hasHistoric":false,"weatherHourly":false,"nfdrsHourly":true,"produceNfdrs":true,"latestObs":null},{"stationId":"55523649","femsStationId":55523649,"wrccId":null,"name":"Belding 3NNW","state":"TX","lat":30.84236,"lng":-103.0422,"elevation":3107,"agency":"WestTX Mesonet","network":"Mesonet","timeZone":"CST","timeZoneOffset":-6,"hasHistoric":false,"weatherHourly":false,"nfdrsHourly":true,"produceNfdrs":true,"latestObs":null},{"stationId":"45735","femsStationId":55521480,"wrccId":"CBCN","name":"BELL CANYON","state":"CA","lat":33.55183,"lng":-117.57294,"elevation":793,"agency":"S&PF","network":"RAWS","timeZone":"PST","timeZoneOffset":-8,"hasHistoric":true,"weatherHourly":true,"nfdrsHourly":true,"produceNfdrs":true,"latestObs":null},{"stationId":"55523348","femsStationId":55523348,"wrccId":null,"name":"Belleville","state":"NY","lat":43.78962,"lng":-76.11373,"elevation":475,"agency":"NY Mesonet","network":"Mesonet","timeZone":"EST","timeZoneOffset":-5,"hasHistoric":false,"weatherHourly":false,"nfdrsHourly":true,"produceNfdrs":true,"latestObs":null},{"stationId":"55523474","femsStationId":55523474,"wrccId":null,"name":"Belleville 2W","state":"KS","lat":39.81409,"lng":-97.67509,"elevation":1545,"agency":"KS Mesonet","network":"Mesonet","timeZone":"CST","timeZoneOffset":-6,"hasHistoric":false,"weatherHourly":false,"nfdrsHourly":true,"produceNfdrs":true,"latestObs":null},{"stationId":"55523349","femsStationId":55523349,"wrccId":null,"name":"Belmont","state":"NY","lat":42.24249,"lng":-78.03958,"elevation":1370,"agency":"NY Mesonet","network":"Mesonet","timeZone":"EST","timeZoneOffset":-5,"hasHistoric":false,"weatherHourly":false,"nfdrsHourly":true,"produceNfdrs":true,"latestObs":null},{"stationId":"21504","femsStationId":55520259,"wrccId":"ABEL","name":"BELMONT","state":"AZ","lat":33.67411,"lng":-112.92281,"elevation":1813,"agency":"BLM","network":"RAWS","timeZone":"MST","timeZoneOffset":-7,"hasHistoric":true,"weatherHourly":true,"nfdrsHourly":true,"produceNfdrs":true,"latestObs":null},{"stationId":"210901","femsStationId":55521990,"wrccId":"MBEM","name":"BEMIDJI","state":"MN","lat":47.50174,"lng":-94.92511,"elevation":1377,"agency":"S&PF","network":"RAWS","timeZone":"CST","timeZoneOffset":-6,"hasHistoric":true,"weatherHourly":true,"nfdrsHourly":true,"produceNfdrs":true,"latestObs":null},{"stationId":"42612","femsStationId":55521348,"wrccId":"CBLT","name":"BEN BOLT","state":"CA","lat":38.59084,"lng":-120.93362,"elevation":905,"agency":"S&PF","network":"RAWS","timeZone":"PST","timeZoneOffset":-8,"hasHistoric":true,"weatherHourly":true,"nfdrsHourly":true,"produceNfdrs":true,"latestObs":null},{"stationId":"241901","femsStationId":55522099,"wrccId":"MBEN","name":"BENCHMARK","state":"MT","lat":47.49526,"lng":-112.88453,"elevation":5374,"agency":"USFS","network":"RAWS","timeZone":"MST","timeZoneOffset":-7,"hasHistoric":true,"weatherHourly":true,"nfdrsHourly":true,"produceNfdrs":true,"latestObs":null},{"stationId":"500414","femsStationId":55520533,"wrccId":"ABEN","name":"BEN CREEK","state":"AK","lat":65.29644,"lng":-143.07236,"elevation":1850,"agency":"NPS","network":"RAWS","timeZone":"AKST","timeZoneOffset":-9,"hasHistoric":true,"weatherHourly":true,"nfdrsHourly":true,"produceNfdrs":true,"latestObs":null},{"stationId":"43809","femsStationId":55521611,"wrccId":"CBNL","name":"BEN LOMOND","state":"CA","lat":37.13094,"lng":-122.17261,"elevation":2598,"agency":"S&PF","network":"RAWS","timeZone":"PST","timeZoneOffset":-8,"hasHistoric":true,"weatherHourly":true,"nfdrsHourly":true,"produceNfdrs":true,"latestObs":null},{"stationId":"55522458","femsStationId":55522458,"wrccId":null,"name":"Bennington Morse State Airport","state":"VT","lat":42.89355,"lng":-73.2486,"elevation":827,"agency":"NWS","network":"ASOS","timeZone":"EST","timeZoneOffset":-5,"hasHistoric":false,"weatherHourly":true,"nfdrsHourly":true,"produceNfdrs":true,"latestObs":null},{"stationId":"500966","femsStationId":55521351,"wrccId":"ABNT","name":"BENTALIT","state":"AK","lat":61.93583,"lng":-150.98583,"elevation":150,"agency":"S&PF","network":"RAWS","timeZone":"AKST","timeZoneOffset":-9,"hasHistoric":true,"weatherHourly":true,"nfdrsHourly":true,"produceNfdrs":true,"latestObs":null},{"stationId":"55523708","femsStationId":55523708,"wrccId":null,"name":"Bentley 2S GMD","state":"KS","lat":37.85386,"lng":-97.53311,"elevation":1384,"agency":"KS Mesonet","network":"Mesonet","timeZone":"CST","timeZoneOffset":-6,"hasHistoric":false,"weatherHourly":false,"nfdrsHourly":true,"produceNfdrs":true,"latestObs":null},{"stationId":"43708","femsStationId":55521759,"wrccId":"CBEN","name":"BENTON","state":"CA","lat":37.84333,"lng":-118.47853,"elevation":5450,"agency":"BLM","network":"RAWS","timeZone":"PST","timeZoneOffset":-8,"hasHistoric":true,"weatherHourly":true,"nfdrsHourly":true,"produceNfdrs":true,"latestObs":null},{"stationId":"55523290","femsStationId":55523290,"wrccId":null,"name":"Berkley Ranch","state":"TX","lat":33.46051,"lng":-97.57865,"elevation":1005,"agency":"TexMesonet","network":"Mesonet","timeZone":"CST","timeZoneOffset":-6,"hasHistoric":false,"weatherHourly":true,"nfdrsHourly":true,"produceNfdrs":true,"latestObs":null},{"stationId":"55523350","femsStationId":55523350,"wrccId":null,"name":"Berkshire","state":"NY","lat":42.3203,"lng":-76.20319,"elevation":1291,"agency":"NY Mesonet","network":"Mesonet","timeZone":"EST","timeZoneOffset":-5,"hasHistoric":false,"weatherHourly":false,"nfdrsHourly":true,"produceNfdrs":true,"latestObs":null},{"stationId":"55522459","femsStationId":55522459,"wrccId":null,"name":"Berlin, Berlin Municipal Airport","state":"NH","lat":44.57611,"lng":-71.17861,"elevation":1158,"agency":"NWS","network":"ASOS","timeZone":"EST","timeZoneOffset":-5,"hasHistoric":false,"weatherHourly":true,"nfdrsHourly":true,"produceNfdrs":true,"latestObs":null},{"stationId":"55523240","femsStationId":55523240,"wrccId":null,"name":"Bernardo Fire Station","state":"TX","lat":29.76276,"lng":-96.39165,"elevation":251,"agency":"TexMesonet","network":"Mesonet","timeZone":"CST","timeZoneOffset":-6,"hasHistoric":false,"weatherHourly":true,"nfdrsHourly":true,"produceNfdrs":true,"latestObs":null},{"stationId":"55522214","femsStationId":55522214,"wrccId":"ABBY","name":"BERNERS BAY","state":"AK","lat":58.775,"lng":-135.03292,"elevation":180,"agency":"USFS","network":"RAWS","timeZone":"AKST","timeZoneOffset":-9,"hasHistoric":false,"weatherHourly":true,"nfdrsHourly":true,"produceNfdrs":true,"latestObs":null},{"stationId":"252402","femsStationId":55520777,"wrccId":"NBES","name":"BESSEY","state":"NE","lat":41.89722,"lng":-100.31056,"elevation":2873,"agency":"USFS","network":"RAWS","timeZone":"CST","timeZoneOffset":-6,"hasHistoric":true,"weatherHourly":true,"nfdrsHourly":true,"produceNfdrs":true,"latestObs":null},{"stationId":"55523171","femsStationId":55523171,"wrccId":null,"name":"Bessie","state":"OK","lat":35.40185,"lng":-99.05847,"elevation":1676,"agency":"OK Mesonet","network":"Mesonet","timeZone":"CST","timeZoneOffset":-6,"hasHistoric":false,"weatherHourly":false,"nfdrsHourly":true,"produceNfdrs":true,"latestObs":null},{"stationId":"55522215","femsStationId":55522215,"wrccId":"CBLH","name":"BEULAH","state":"CO","lat":38.07722,"lng":-104.97472,"elevation":6239,"agency":"S&PF","network":"RAWS","timeZone":"MST","timeZoneOffset":-7,"hasHistoric":false,"weatherHourly":true,"nfdrsHourly":true,"produceNfdrs":true,"latestObs":null},{"stationId":"420403","femsStationId":55521120,"wrccId":"BUES","name":"BEUS CANYON","state":"UT","lat":41.17664,"lng":-111.92925,"elevation":5067,"agency":"USFS","network":"RAWS","timeZone":"MST","timeZoneOffset":-7,"hasHistoric":true,"weatherHourly":true,"nfdrsHourly":true,"produceNfdrs":true,"latestObs":null},{"stationId":"55522460","femsStationId":55522460,"wrccId":null,"name":"Beverly, Beverly Municipal Airport","state":"MA","lat":42.58361,"lng":-70.91639,"elevation":108,"agency":"NWS","network":"ASOS","timeZone":"EST","timeZoneOffset":-5,"hasHistoric":false,"weatherHourly":true,"nfdrsHourly":true,"produceNfdrs":true,"latestObs":null},{"stationId":"45442","femsStationId":55521341,"wrccId":"CBEV","name":"BEVERLY HILLS","state":"CA","lat":34.12486,"lng":-118.41257,"elevation":1260,"agency":"S&PF","network":"RAWS","timeZone":"PST","timeZoneOffset":-8,"hasHistoric":true,"weatherHourly":true,"nfdrsHourly":true,"produceNfdrs":true,"latestObs":null},{"stationId":"55523648","femsStationId":55523648,"wrccId":null,"name":"BHIC","state":"NC","lat":33.8633,"lng":-77.9983,"elevation":5,"agency":"NC ECONet","network":"Mesonet","timeZone":"EST","timeZoneOffset":-5,"hasHistoric":false,"weatherHourly":true,"nfdrsHourly":true,"produceNfdrs":true,"latestObs":null},{"stationId":"55522216","femsStationId":55522216,"wrccId":"TBIB","name":"BIBE RGV","state":"TX","lat":29.18583,"lng":-102.96308,"elevation":1860,"agency":"NPS","network":"RAWS","timeZone":"CST","timeZoneOffset":-6,"hasHistoric":false,"weatherHourly":true,"nfdrsHourly":true,"produceNfdrs":true,"latestObs":null},{"stationId":"225101","femsStationId":55521572,"wrccId":"MBIE","name":"BIENVILLE","state":"MS","lat":32.315,"lng":-89.48944,"elevation":515,"agency":"USFS","network":"RAWS","timeZone":"CST","timeZoneOffset":-6,"hasHistoric":true,"weatherHourly":true,"nfdrsHourly":true,"produceNfdrs":true,"latestObs":null},{"stationId":"40501","femsStationId":55520218,"wrccId":"CBBR","name":"BIG BAR","state":"CA","lat":40.74216,"lng":-123.24918,"elevation":1722,"agency":"USFS","network":"RAWS","timeZone":"PST","timeZoneOffset":-8,"hasHistoric":true,"weatherHourly":true,"nfdrsHourly":true,"produceNfdrs":true,"latestObs":null},{"stationId":"55807","femsStationId":55522153,"wrccId":"CBBP","name":"BIG BEAR PARK","state":"CO","lat":37.49611,"lng":-107.72944,"elevation":10341,"agency":"USFS","network":"RAWS","timeZone":"MST","timeZoneOffset":-7,"hasHistoric":true,"weatherHourly":true,"nfdrsHourly":true,"produceNfdrs":true,"latestObs":null},{"stationId":"55523531","femsStationId":55523531,"wrccId":null,"name":"Big Bend NP Castolon 1NW","state":"TX","lat":29.14592,"lng":-103.52717,"elevation":2184,"agency":"WestTX Mesonet","network":"Mesonet","timeZone":"CST","timeZoneOffset":-6,"hasHistoric":false,"weatherHourly":false,"nfdrsHourly":true,"produceNfdrs":true,"latestObs":null},{"stationId":"452919","femsStationId":55520453,"wrccId":"WBBL","name":"BIG BLUE","state":"WA","lat":48.00598,"lng":-118.01617,"elevation":3400,"agency":"S&PF","network":"RAWS","timeZone":"PST","timeZoneOffset":-8,"hasHistoric":true,"weatherHourly":true,"nfdrsHourly":true,"produceNfdrs":true,"latestObs":null},{"stationId":"168541","femsStationId":55520246,"wrccId":"LBBR","name":"BIG BRANCH NWR","state":"LA","lat":30.32167,"lng":-89.93528,"elevation":11,"agency":"FWS","network":"RAWS","timeZone":"CST","timeZoneOffset":-6,"hasHistoric":true,"weatherHourly":true,"nfdrsHourly":true,"produceNfdrs":true,"latestObs":null},{"stationId":"55522217","femsStationId":55522217,"wrccId":"MBCU","name":"BIG CUT","state":"MI","lat":45.34143,"lng":-84.01459,"elevation":892,"agency":"S&PF","network":"RAWS","timeZone":"EST","timeZoneOffset":-5,"hasHistoric":false,"weatherHourly":true,"nfdrsHourly":true,"produceNfdrs":true,"latestObs":null},{"stationId":"55523547","femsStationId":55523547,"wrccId":null,"name":"Big Dog Ranch","state":"TX","lat":31.24169,"lng":-98.31394,"elevation":1433,"agency":"TexMesonet","network":"Mesonet","timeZone":"CST","timeZoneOffset":-6,"hasHistoric":false,"weatherHourly":true,"nfdrsHourly":true,"produceNfdrs":true,"latestObs":null},{"stationId":"40402","femsStationId":55521555,"wrccId":"CBIH","name":"BIG HILL","state":"CA","lat":41.09747,"lng":-123.63589,"elevation":3570,"agency":"BIA","network":"RAWS","timeZone":"PST","timeZoneOffset":-8,"hasHistoric":true,"weatherHourly":true,"nfdrsHourly":true,"produceNfdrs":true,"latestObs":null},{"stationId":"56005","femsStationId":55521587,"wrccId":"CBIG","name":"BIG HORN","state":"CO","lat":37.02083,"lng":-106.20111,"elevation":8651,"agency":"USFS","network":"RAWS","timeZone":"MST","timeZoneOffset":-7,"hasHistoric":true,"weatherHourly":true,"nfdrsHourly":true,"produceNfdrs":true,"latestObs":null},{"stationId":"245107","femsStationId":55522121,"wrccId":"MBIG","name":"BIGHORN MOUNTAIN","state":"MT","lat":45.07333,"lng":-107.88872,"elevation":8180,"agency":"BIA","network":"RAWS","timeZone":"MST","timeZoneOffset":-7,"hasHistoric":true,"weatherHourly":true,"nfdrsHourly":true,"produceNfdrs":true,"latestObs":null},{"stationId":"422711","femsStationId":55520415,"wrccId":"BIGI","name":"BIG INDIAN VALLEY","state":"UT","lat":38.22461,"lng":-109.27869,"elevation":6957,"agency":"BLM","network":"RAWS","timeZone":"MST","timeZoneOffset":-7,"hasHistoric":true,"weatherHourly":true,"nfdrsHourly":true,"produceNfdrs":true,"latestObs":null},{"stationId":"360991","femsStationId":55521375,"wrccId":"PBKN","name":"BIG KNOB","state":"PA","lat":40.30326,"lng":-77.58981,"elevation":812,"agency":"S&PF","network":"RAWS","timeZone":"EST","timeZoneOffset":-5,"hasHistoric":true,"weatherHourly":true,"nfdrsHourly":true,"produceNfdrs":true,"latestObs":null},{"stationId":"500939","femsStationId":55520912,"wrccId":"ABIL","name":"BIG LAKE","state":"AK","lat":61.51825,"lng":-149.90845,"elevation":175,"agency":"S&PF","network":"RAWS","timeZone":"AKST","timeZoneOffset":-9,"hasHistoric":true,"weatherHourly":true,"nfdrsHourly":true,"produceNfdrs":true,"latestObs":null},{"stationId":"127301","femsStationId":55521897,"wrccId":"IBIO","name":"BIG OAKS","state":"IN","lat":38.92528,"lng":-85.3625,"elevation":900,"agency":"FWS","network":"RAWS","timeZone":"EST","timeZoneOffset":-5,"hasHistoric":true,"weatherHourly":true,"nfdrsHourly":true,"produceNfdrs":true,"latestObs":null},{"stationId":"45102","femsStationId":55520691,"wrccId":"CBPI","name":"BIG PINE FLAT","state":"CA","lat":34.31875,"lng":-117.01389,"elevation":6851,"agency":"USFS","network":"RAWS","timeZone":"PST","timeZoneOffset":-8,"hasHistoric":true,"weatherHourly":true,"nfdrsHourly":true,"produceNfdrs":true,"latestObs":null},{"stationId":"45401","femsStationId":55521979,"wrccId":"CBIP","name":"BIG PINES","state":"CA","lat":34.37915,"lng":-117.68771,"elevation":6964,"agency":"USFS","network":"RAWS","timeZone":"PST","timeZoneOffset":-8,"hasHistoric":true,"weatherHourly":true,"nfdrsHourly":true,"produceNfdrs":true,"latestObs":null},{"stationId":"42310","femsStationId":55520718,"wrccId":"CBIR","name":"BIG ROCK","state":"CA","lat":38.03944,"lng":-122.57,"elevation":1500,"agency":"S&PF","network":"RAWS","timeZone":"PST","timeZoneOffset":-8,"hasHistoric":true,"weatherHourly":true,"nfdrsHourly":true,"produceNfdrs":true,"latestObs":null},{"stationId":"154801","femsStationId":55521772,"wrccId":"KBSN","name":"BIG SANDY","state":"KY","lat":37.74883,"lng":-82.64122,"elevation":1180,"agency":"S&PF","network":"RAWS","timeZone":"EST","timeZoneOffset":-5,"hasHistoric":true,"weatherHourly":true,"nfdrsHourly":true,"produceNfdrs":true,"latestObs":null},{"stationId":"244002","femsStationId":55520629,"wrccId":"MBSM","name":"BIG SHEEP MOUNTAIN","state":"MT","lat":47.02819,"lng":-105.80472,"elevation":3172,"agency":"BLM","network":"RAWS","timeZone":"MST","timeZoneOffset":-7,"hasHistoric":true,"weatherHourly":true,"nfdrsHourly":true,"produceNfdrs":true,"latestObs":null},{"stationId":"239004","femsStationId":55521444,"wrccId":"MBSP","name":"BIG SPRING","state":"MO","lat":36.97569,"lng":-90.998,"elevation":721,"agency":"NPS","network":"RAWS","timeZone":"CST","timeZoneOffset":-6,"hasHistoric":true,"weatherHourly":true,"nfdrsHourly":true,"produceNfdrs":true,"latestObs":null},{"stationId":"213501","femsStationId":55521920,"wrccId":"MBST","name":"BIG STONE NWR","state":"MN","lat":45.26111,"lng":-96.34167,"elevation":878,"agency":"FWS","network":"RAWS","timeZone":"CST","timeZoneOffset":-6,"hasHistoric":true,"weatherHourly":true,"nfdrsHourly":true,"produceNfdrs":true,"latestObs":null},{"stationId":"44302","femsStationId":55521746,"wrccId":"CBSR","name":"BIG SUR","state":"CA","lat":36.24536,"lng":-121.78015,"elevation":354,"agency":"USFS","network":"RAWS","timeZone":"PST","timeZoneOffset":-8,"hasHistoric":true,"weatherHourly":true,"nfdrsHourly":true,"produceNfdrs":true,"latestObs":null},{"stationId":"157002","femsStationId":55521859,"wrccId":"KSOM","name":"BIG SWAG","state":"KY","lat":36.87267,"lng":-84.42325,"elevation":1400,"agency":"USFS","network":"RAWS","timeZone":"EST","timeZoneOffset":-5,"hasHistoric":true,"weatherHourly":true,"nfdrsHourly":true,"produceNfdrs":true,"latestObs":null},{"stationId":"55523351","femsStationId":55523351,"wrccId":null,"name":"Binghamton","state":"NY","lat":42.05843,"lng":-75.95104,"elevation":1753,"agency":"NY Mesonet","network":"Mesonet","timeZone":"EST","timeZoneOffset":-5,"hasHistoric":false,"weatherHourly":false,"nfdrsHourly":true,"produceNfdrs":true,"latestObs":null},{"stationId":"500423","femsStationId":55520615,"wrccId":"ABCK","name":"BIRCH CREEK","state":"AK","lat":65.58458,"lng":-144.36353,"elevation":850,"agency":"BLM","network":"RAWS","timeZone":"AKST","timeZoneOffset":-9,"hasHistoric":true,"weatherHourly":true,"nfdrsHourly":true,"produceNfdrs":true,"latestObs":null},{"stationId":"417901","femsStationId":55520621,"wrccId":"TBIR","name":"BIRD","state":"TX","lat":30.2625,"lng":-98.62889,"elevation":1489,"agency":"S&PF","network":"RAWS","timeZone":"CST","timeZoneOffset":-6,"hasHistoric":true,"weatherHourly":true,"nfdrsHourly":true,"produceNfdrs":true,"latestObs":null},{"stationId":"45023","femsStationId":55521703,"wrccId":"CBSP","name":"BIRD SPRINGS PASS","state":"CA","lat":35.53586,"lng":-118.14033,"elevation":6360,"agency":"BLM","network":"RAWS","timeZone":"PST","timeZoneOffset":-8,"hasHistoric":true,"weatherHourly":true,"nfdrsHourly":true,"produceNfdrs":true,"latestObs":null},{"stationId":"55522461","femsStationId":55522461,"wrccId":null,"name":"Birmingham, Birmingham International Airport","state":"AL","lat":33.56556,"lng":-86.745,"elevation":643,"agency":"NWS","network":"ASOS","timeZone":"CST","timeZoneOffset":-6,"hasHistoric":false,"weatherHourly":true,"nfdrsHourly":true,"produceNfdrs":true,"latestObs":null},{"stationId":"55522462","femsStationId":55522462,"wrccId":null,"name":"Bismarck, Bismarck Municipal Airport","state":"ND","lat":46.7825,"lng":-100.75722,"elevation":1677,"agency":"NWS","network":"ASOS","timeZone":"CST","timeZoneOffset":-6,"hasHistoric":false,"weatherHourly":true,"nfdrsHourly":true,"produceNfdrs":true,"latestObs":null},{"stationId":"400902","femsStationId":55521534,"wrccId":"TBIG","name":"BISO-NP","state":"TN","lat":36.475,"lng":-84.65417,"elevation":1445,"agency":"NPS","network":"RAWS","timeZone":"EST","timeZoneOffset":-5,"hasHistoric":true,"weatherHourly":true,"nfdrsHourly":true,"produceNfdrs":true,"latestObs":null},{"stationId":"55523170","femsStationId":55523170,"wrccId":null,"name":"Bixby","state":"OK","lat":35.96305,"lng":-95.86621,"elevation":604,"agency":"OK Mesonet","network":"Mesonet","timeZone":"CST","timeZoneOffset":-6,"hasHistoric":false,"weatherHourly":false,"nfdrsHourly":true,"produceNfdrs":true,"latestObs":null},{"stationId":"55522218","femsStationId":55522218,"wrccId":"DBLB","name":"BLACKBIRD","state":"DE","lat":39.32583,"lng":-75.73083,"elevation":70,"agency":"S&PF","network":"RAWS","timeZone":"EST","timeZoneOffset":-5,"hasHistoric":false,"weatherHourly":true,"nfdrsHourly":true,"produceNfdrs":true,"latestObs":null},{"stationId":"53806","femsStationId":55521106,"wrccId":"CBLA","name":"BLACK CANYON","state":"CO","lat":38.54253,"lng":-107.68597,"elevation":8446,"agency":"BLM","network":"RAWS","timeZone":"MST","timeZoneOffset":-7,"hasHistoric":true,"weatherHourly":true,"nfdrsHourly":true,"produceNfdrs":true,"latestObs":null},{"stationId":"421805","femsStationId":55521387,"wrccId":"BLAC","name":"BLACK CEDAR","state":"UT","lat":38.97924,"lng":-112.23886,"elevation":6493,"agency":"USFS","network":"RAWS","timeZone":"MST","timeZoneOffset":-7,"hasHistoric":true,"weatherHourly":true,"nfdrsHourly":true,"produceNfdrs":true,"latestObs":null},{"stationId":"227802","femsStationId":55520348,"wrccId":"MBLC","name":"BLACK CREEK","state":"MS","lat":30.84893,"lng":-89.03392,"elevation":277,"agency":"USFS","network":"RAWS","timeZone":"CST","timeZoneOffset":-6,"hasHistoric":true,"weatherHourly":true,"nfdrsHourly":true,"produceNfdrs":true,"latestObs":null},{"stationId":"43008","femsStationId":55520354,"wrccId":"CBKD","name":"BLACK DIAMOND","state":"CA","lat":37.95,"lng":-121.88444,"elevation":1600,"agency":"S&PF","network":"RAWS","timeZone":"PST","timeZoneOffset":-8,"hasHistoric":true,"weatherHourly":true,"nfdrsHourly":true,"produceNfdrs":true,"latestObs":null},{"stationId":"21008","femsStationId":55520245,"wrccId":"ABLA","name":"BLACK HILLS","state":"AZ","lat":33.08203,"lng":-109.95119,"elevation":3262,"agency":"BLM","network":"RAWS","timeZone":"MST","timeZoneOffset":-7,"hasHistoric":true,"weatherHourly":true,"nfdrsHourly":true,"produceNfdrs":true,"latestObs":null},{"stationId":"450321","femsStationId":55522035,"wrccId":"WBLA","name":"BLACK KNOB","state":"WA","lat":47.41374,"lng":-124.1031,"elevation":618,"agency":"BIA","network":"RAWS","timeZone":"PST","timeZoneOffset":-8,"hasHistoric":true,"weatherHourly":true,"nfdrsHourly":true,"produceNfdrs":true,"latestObs":null},{"stationId":"290305","femsStationId":55521099,"wrccId":"XBLM","name":"BLACK MESA","state":"NM","lat":36.03708,"lng":-106.04964,"elevation":5762,"agency":"BIA","network":"RAWS","timeZone":"MST","timeZoneOffset":-7,"hasHistoric":true,"weatherHourly":true,"nfdrsHourly":true,"produceNfdrs":true,"latestObs":null},{"stationId":"55601","femsStationId":55521210,"wrccId":"CBLK","name":"BLACK MOUNTAIN","state":"CO","lat":37.86153,"lng":-105.28411,"elevation":8972,"agency":"USFS","network":"RAWS","timeZone":"MST","timeZoneOffset":-7,"hasHistoric":true,"weatherHourly":true,"nfdrsHourly":true,"produceNfdrs":true,"latestObs":null},{"stationId":"351319","femsStationId":55520272,"wrccId":"OBMR","name":"BLACK MTN RIDGE","state":"OR","lat":45.57361,"lng":-118.23861,"elevation":4965,"agency":"USFS","network":"RAWS","timeZone":"PST","timeZoneOffset":-8,"hasHistoric":true,"weatherHourly":true,"nfdrsHourly":true,"produceNfdrs":true,"latestObs":null},{"stationId":"473901","femsStationId":55520570,"wrccId":"WBRF","name":"BLACK RIVER FALLS","state":"WI","lat":44.29663,"lng":-90.72678,"elevation":898,"agency":"S&PF","network":"RAWS","timeZone":"CST","timeZoneOffset":-6,"hasHistoric":true,"weatherHourly":true,"nfdrsHourly":true,"produceNfdrs":true,"latestObs":null},{"stationId":"44722","femsStationId":55521698,"wrccId":"CBRK","name":"BLACKROCK","state":"CA","lat":36.09345,"lng":-118.26108,"elevation":8114,"agency":"USFS","network":"RAWS","timeZone":"PST","timeZoneOffset":-8,"hasHistoric":true,"weatherHourly":true,"nfdrsHourly":true,"produceNfdrs":true,"latestObs":null},{"stationId":"353342","femsStationId":55521580,"wrccId":"OBLA","name":"BLACK ROCK","state":"OR","lat":43.52831,"lng":-121.81601,"elevation":4891,"agency":"USFS","network":"RAWS","timeZone":"PST","timeZoneOffset":-8,"hasHistoric":true,"weatherHourly":true,"nfdrsHourly":true,"produceNfdrs":true,"latestObs":null},{"stationId":"20114","femsStationId":55521805,"wrccId":"ABRK","name":"BLACK ROCK","state":"AZ","lat":36.79436,"lng":-113.75056,"elevation":7224,"agency":"BLM","network":"RAWS","timeZone":"MST","timeZoneOffset":-7,"hasHistoric":true,"weatherHourly":true,"nfdrsHourly":true,"produceNfdrs":true,"latestObs":null},{"stationId":"40731","femsStationId":55521527,"wrccId":"CBLM","name":"BLACKS MOUNTAIN","state":"CA","lat":40.72457,"lng":-121.17895,"elevation":5725,"agency":"USFS","network":"RAWS","timeZone":"PST","timeZoneOffset":-8,"hasHistoric":true,"weatherHourly":true,"nfdrsHourly":true,"produceNfdrs":true,"latestObs":null},{"stationId":"421307","femsStationId":55520907,"wrccId":"BKTL","name":"BLACKTAIL","state":"UT","lat":40.27628,"lng":-110.56219,"elevation":7402,"agency":"BIA","network":"RAWS","timeZone":"MST","timeZoneOffset":-7,"hasHistoric":true,"weatherHourly":true,"nfdrsHourly":true,"produceNfdrs":true,"latestObs":null},{"stationId":"55522219","femsStationId":55522219,"wrccId":"MBKT","name":"BLACKTAIL","state":"MT","lat":47.9827,"lng":-114.3562,"elevation":5675,"agency":"USFS","network":"RAWS","timeZone":"MST","timeZoneOffset":-7,"hasHistoric":false,"weatherHourly":true,"nfdrsHourly":true,"produceNfdrs":true,"latestObs":null},{"stationId":"182002","femsStationId":55521756,"wrccId":"MBLA","name":"BLACKWATER","state":"MD","lat":38.44579,"lng":-76.09315,"elevation":15,"agency":"FWS","network":"RAWS","timeZone":"EST","timeZoneOffset":-5,"hasHistoric":true,"weatherHourly":true,"nfdrsHourly":true,"produceNfdrs":true,"latestObs":null},